{"routes":[{"id":177,"cityA":{"id":170,"country":"AX","latitude":60.11695,"longitude":20.25819,"name":"Lumparland","targetAirportCode":null},"cityB":{"id":118,"country":"SE","latitude":59.32938,"longitude":18.06871,"name":"Stockholm","targetAirportCode":"BMA"},"distanceKm":150,"shipsCount":1,"slug":"lumparland-ax-stockholm-se"},{"id":239,"cityA":{"id":168,"country":"AX","latitude":60.09726,"longitude":19.93481,"name":"Mariehamn","targetAirportCode":null},"cityB":{"id":119,"country":"EE","latitude":59.43696,"longitude":24.75353,"name":"Tallinn","targetAirportCode":"TLL"},"distanceKm":279,"shipsCount":1,"slug":"mariehamn-ax-tallinn-ee"},{"id":187,"cityA":{"id":174,"country":"DE","latitude":53.86893,"longitude":10.68729,"name":"Lübeck","targetAirportCode":"LBC"},"cityB":{"id":120,"country":"DE","latitude":53.96304,"longitude":10.8709,"name":"Travemunde","targetAirportCode":"LBC"},"distanceKm":15,"shipsCount":1,"slug":"lubeck-de-travemunde-de"},{"id":188,"cityA":{"id":174,"country":"DE","latitude":53.86893,"longitude":10.68729,"name":"Lübeck","targetAirportCode":"LBC"},"cityB":{"id":175,"country":"SE","latitude":55.60587,"longitude":13.00073,"name":"Malmo","targetAirportCode":"MMX"},"distanceKm":243,"shipsCount":1,"slug":"lubeck-de-malmo-se"},{"id":162,"cityA":{"id":152,"country":"DE","latitude":54.49498,"longitude":11.2117,"name":"Puttgarden","targetAirportCode":"KEL"},"cityB":{"id":153,"country":"DK","latitude":54.69495,"longitude":11.38885,"name":"Rødby","targetAirportCode":"MRW"},"distanceKm":25,"shipsCount":1,"slug":"puttgarden-de-rodby-dk"},{"id":166,"cityA":{"id":158,"country":"DE","latitude":54.0887,"longitude":12.14049,"name":"Rostock","targetAirportCode":"RLG"},"cityB":{"id":157,"country":"FI","latitude":59.83333,"longitude":22.95,"name":"Hanko","targetAirportCode":"TKU"},"distanceKm":913,"shipsCount":1,"slug":"rostock-de-hanko-fi"},{"id":204,"cityA":{"id":158,"country":"DE","latitude":54.0887,"longitude":12.14049,"name":"Rostock","targetAirportCode":"RLG"},"cityB":{"id":140,"country":"SE","latitude":55.37514,"longitude":13.15691,"name":"Trelleborg","targetAirportCode":"MMX"},"distanceKm":157,"shipsCount":2,"slug":"rostock-de-trelleborg-se"},{"id":151,"cityA":{"id":139,"country":"DE","latitude":54.5157,"longitude":13.64451,"name":"Sassnitz","targetAirportCode":"HDF"},"cityB":{"id":140,"country":"SE","latitude":55.37514,"longitude":13.15691,"name":"Trelleborg","targetAirportCode":"MMX"},"distanceKm":100,"shipsCount":2,"slug":"sassnitz-de-trelleborg-se"},{"id":189,"cityA":{"id":120,"country":"DE","latitude":53.96304,"longitude":10.8709,"name":"Travemunde","targetAirportCode":"LBC"},"cityB":{"id":175,"country":"SE","latitude":55.60587,"longitude":13.00073,"name":"Malmo","targetAirportCode":"MMX"},"distanceKm":228,"shipsCount":2,"slug":"travemunde-de-malmo-se"},{"id":108,"cityA":{"id":101,"country":"DK","latitude":55.67594,"longitude":12.56553,"name":"Copenhague","targetAirportCode":"CPH"},"cityB":{"id":102,"country":"NO","latitude":59.91273,"longitude":10.74609,"name":"Oslo","targetAirportCode":"OSL"},"distanceKm":483,"shipsCount":2,"slug":"copenhague-dk-oslo-no"},{"id":192,"cityA":{"id":176,"country":"DK","latitude":56.03606,"longitude":12.6136,"name":"Elsinore","targetAirportCode":"CPH"},"cityB":{"id":177,"country":"SE","latitude":56.04673,"longitude":12.69437,"name":"Helsingborg","targetAirportCode":"AGH"},"distanceKm":5,"shipsCount":2,"slug":"elsinore-dk-helsingborg-se"},{"id":121,"cityA":{"id":105,"country":"DK","latitude":57.44073,"longitude":10.53661,"name":"Frederikshavn","targetAirportCode":"CNL"},"cityB":{"id":106,"country":"SE","latitude":57.70716,"longitude":11.96679,"name":"Goteborg","targetAirportCode":"GSE"},"distanceKm":90,"shipsCount":2,"slug":"frederikshavn-dk-goteborg-se"},{"id":215,"cityA":{"id":199,"country":"DK","latitude":57.58812,"longitude":9.95922,"name":"Hirtshals","targetAirportCode":"CNL"},"cityB":{"id":198,"country":"NO","latitude":58.14671,"longitude":7.9956,"name":"Kristiansand","targetAirportCode":"KRS"},"distanceKm":131,"shipsCount":1,"slug":"hirtshals-dk-kristiansand-no"},{"id":61,"cityA":{"id":128,"country":"DZ","latitude":36.73225,"longitude":3.08746,"name":"Algiers","targetAirportCode":"ALG"},"cityB":{"id":57,"country":"MA","latitude":35.76727,"longitude":-5.79975,"name":"Tanger Med","targetAirportCode":"TNG"},"distanceKm":804,"shipsCount":3,"slug":"algiers-dz-tanger-med-ma"},{"id":199,"cityA":{"id":187,"country":"EE","latitude":59.35667,"longitude":24.05306,"name":"Paldiski","targetAirportCode":"TLL"},"cityB":{"id":188,"country":"SE","latitude":59.71667,"longitude":19.06667,"name":"Kapellskär","targetAirportCode":"ARN"},"distanceKm":284,"shipsCount":2,"slug":"paldiski-ee-kapellskar-se"},{"id":145,"cityA":{"id":119,"country":"EE","latitude":59.43696,"longitude":24.75353,"name":"Tallinn","targetAirportCode":"TLL"},"cityB":{"id":132,"country":"FI","latitude":60.20963,"longitude":25.14195,"name":"Vuosaari","targetAirportCode":"HEM"},"distanceKm":88,"shipsCount":1,"slug":"tallinn-ee-vuosaari-fi"},{"id":169,"cityA":{"id":119,"country":"EE","latitude":59.43696,"longitude":24.75353,"name":"Tallinn","targetAirportCode":"TLL"},"cityB":{"id":118,"country":"SE","latitude":59.32938,"longitude":18.06871,"name":"Stockholm","targetAirportCode":"BMA"},"distanceKm":378,"shipsCount":2,"slug":"tallinn-ee-stockholm-se"},{"id":225,"cityA":{"id":58,"country":"ES","latitude":36.83814,"longitude":-2.45974,"name":"Almeria","targetAirportCode":"LEI"},"cityB":{"id":207,"country":"ES","latitude":35.29369,"longitude":-2.93833,"name":"Melilla","targetAirportCode":"MLN"},"distanceKm":177,"shipsCount":1,"slug":"almeria-es-melilla-es"},{"id":62,"cityA":{"id":58,"country":"ES","latitude":36.83814,"longitude":-2.45974,"name":"Almeria","targetAirportCode":"LEI"},"cityB":{"id":59,"country":"MA","latitude":35.16813,"longitude":-2.93352,"name":"Nador","targetAirportCode":"NDR"},"distanceKm":190,"shipsCount":2,"slug":"almeria-es-nador-ma"},{"id":69,"cityA":{"id":68,"country":"ES","latitude":28.96302,"longitude":-13.54769,"name":"Arrecife","targetAirportCode":"ACE"},"cityB":{"id":69,"country":"ES","latitude":36.52672,"longitude":-6.2891,"name":"Cadiz","targetAirportCode":"ROZ"},"distanceKm":1081,"shipsCount":1,"slug":"arrecife-es-cadiz-es"},{"id":70,"cityA":{"id":68,"country":"ES","latitude":28.96302,"longitude":-13.54769,"name":"Arrecife","targetAirportCode":"ACE"},"cityB":{"id":70,"country":"ES","latitude":28.68351,"longitude":-17.76421,"name":"Santa Cruz de La Palma","targetAirportCode":"SPC"},"distanceKm":412,"shipsCount":1,"slug":"arrecife-es-santa-cruz-de-la-palma-es"},{"id":84,"cityA":{"id":53,"country":"ES","latitude":41.38879,"longitude":2.15899,"name":"Barcelone","targetAirportCode":"BCN"},"cityB":{"id":83,"country":"ES","latitude":39.56939,"longitude":2.65024,"name":"Palma","targetAirportCode":"PMI"},"distanceKm":206,"shipsCount":3,"slug":"barcelone-es-palma-es"},{"id":83,"cityA":{"id":53,"country":"ES","latitude":41.38879,"longitude":2.15899,"name":"Barcelone","targetAirportCode":"BCN"},"cityB":{"id":59,"country":"MA","latitude":35.16813,"longitude":-2.93352,"name":"Nador","targetAirportCode":"NDR"},"distanceKm":822,"shipsCount":1,"slug":"barcelone-es-nador-ma"},{"id":207,"cityA":{"id":53,"country":"ES","latitude":41.38879,"longitude":2.15899,"name":"Barcelone","targetAirportCode":"BCN"},"cityB":{"id":57,"country":"MA","latitude":35.76727,"longitude":-5.79975,"name":"Tanger Med","targetAirportCode":"TNG"},"distanceKm":932,"shipsCount":2,"slug":"barcelone-es-tanger-med-ma"},{"id":91,"cityA":{"id":69,"country":"ES","latitude":36.52672,"longitude":-6.2891,"name":"Cadiz","targetAirportCode":"ROZ"},"cityB":{"id":90,"country":"ES","latitude":28.09973,"longitude":-15.41343,"name":"Las Palmas","targetAirportCode":"LPA"},"distanceKm":1269,"shipsCount":1,"slug":"cadiz-es-las-palmas-es"},{"id":92,"cityA":{"id":69,"country":"ES","latitude":36.52672,"longitude":-6.2891,"name":"Cadiz","targetAirportCode":"ROZ"},"cityB":{"id":70,"country":"ES","latitude":28.68351,"longitude":-17.76421,"name":"Santa Cruz de La Palma","targetAirportCode":"SPC"},"distanceKm":1383,"shipsCount":1,"slug":"cadiz-es-santa-cruz-de-la-palma-es"},{"id":109,"cityA":{"id":103,"country":"ES","latitude":38.84078,"longitude":0.10574,"name":"Dénia","targetAirportCode":"ALC"},"cityB":{"id":81,"country":"ES","latitude":38.70566,"longitude":1.42893,"name":"Formentera","targetAirportCode":"IBZ"},"distanceKm":115,"shipsCount":1,"slug":"denia-es-formentera-es"},{"id":110,"cityA":{"id":103,"country":"ES","latitude":38.84078,"longitude":0.10574,"name":"Dénia","targetAirportCode":"ALC"},"cityB":{"id":83,"country":"ES","latitude":39.56939,"longitude":2.65024,"name":"Palma","targetAirportCode":"PMI"},"distanceKm":233,"shipsCount":1,"slug":"denia-es-palma-es"},{"id":112,"cityA":{"id":81,"country":"ES","latitude":38.70566,"longitude":1.42893,"name":"Formentera","targetAirportCode":"IBZ"},"cityB":{"id":83,"country":"ES","latitude":39.56939,"longitude":2.65024,"name":"Palma","targetAirportCode":"PMI"},"distanceKm":142,"shipsCount":1,"slug":"formentera-es-palma-es"},{"id":226,"cityA":{"id":208,"country":"ES","latitude":36.72016,"longitude":-4.42034,"name":"Málaga","targetAirportCode":"AGP"},"cityB":{"id":207,"country":"ES","latitude":35.29369,"longitude":-2.93833,"name":"Melilla","targetAirportCode":"MLN"},"distanceKm":207,"shipsCount":1,"slug":"malaga-es-melilla-es"},{"id":224,"cityA":{"id":206,"country":"ES","latitude":36.75066,"longitude":-3.5179,"name":"Motril","targetAirportCode":"GRX"},"cityB":{"id":59,"country":"MA","latitude":35.16813,"longitude":-2.93352,"name":"Nador","targetAirportCode":"NDR"},"distanceKm":183,"shipsCount":1,"slug":"motril-es-nador-ma"},{"id":170,"cityA":{"id":83,"country":"ES","latitude":39.56939,"longitude":2.65024,"name":"Palma","targetAirportCode":"PMI"},"cityB":{"id":160,"country":"ES","latitude":39.46975,"longitude":-0.37739,"name":"Valencia","targetAirportCode":"VLC"},"distanceKm":260,"shipsCount":1,"slug":"palma-es-valencia-es"},{"id":156,"cityA":{"id":130,"country":"ES","latitude":43.46472,"longitude":-3.80444,"name":"Santander","targetAirportCode":"SDR"},"cityB":{"id":146,"country":"IE","latitude":51.83389,"longitude":-8.31694,"name":"Ringaskiddy","targetAirportCode":"ORK"},"distanceKm":990,"shipsCount":1,"slug":"santander-es-ringaskiddy-ie"},{"id":183,"cityA":{"id":117,"country":"FI","latitude":60.16952,"longitude":24.93545,"name":"Helsinki","targetAirportCode":"HEM"},"cityB":{"id":168,"country":"AX","latitude":60.09726,"longitude":19.93481,"name":"Mariehamn","targetAirportCode":null},"distanceKm":277,"shipsCount":1,"slug":"helsinki-fi-mariehamn-ax"},{"id":133,"cityA":{"id":117,"country":"FI","latitude":60.16952,"longitude":24.93545,"name":"Helsinki","targetAirportCode":"HEM"},"cityB":{"id":120,"country":"DE","latitude":53.96304,"longitude":10.8709,"name":"Travemunde","targetAirportCode":"LBC"},"distanceKm":1092,"shipsCount":2,"slug":"helsinki-fi-travemunde-de"},{"id":132,"cityA":{"id":117,"country":"FI","latitude":60.16952,"longitude":24.93545,"name":"Helsinki","targetAirportCode":"HEM"},"cityB":{"id":119,"country":"EE","latitude":59.43696,"longitude":24.75353,"name":"Tallinn","targetAirportCode":"TLL"},"distanceKm":82,"shipsCount":6,"slug":"helsinki-fi-tallinn-ee"},{"id":131,"cityA":{"id":117,"country":"FI","latitude":60.16952,"longitude":24.93545,"name":"Helsinki","targetAirportCode":"HEM"},"cityB":{"id":118,"country":"SE","latitude":59.32938,"longitude":18.06871,"name":"Stockholm","targetAirportCode":"BMA"},"distanceKm":396,"shipsCount":5,"slug":"helsinki-fi-stockholm-se"},{"id":153,"cityA":{"id":143,"country":"FI","latitude":62.38444,"longitude":21.22331,"name":"Kaskinen","targetAirportCode":"KHJ"},"cityB":{"id":144,"country":"SE","latitude":62.63228,"longitude":17.93794,"name":"Härnösand","targetAirportCode":"SDL"},"distanceKm":171,"shipsCount":1,"slug":"kaskinen-fi-harnosand-se"},{"id":208,"cityA":{"id":192,"country":"FI","latitude":60.46744,"longitude":22.02428,"name":"Naantali","targetAirportCode":"TKU"},"cityB":{"id":188,"country":"SE","latitude":59.71667,"longitude":19.06667,"name":"Kapellskär","targetAirportCode":"ARN"},"distanceKm":184,"shipsCount":2,"slug":"naantali-fi-kapellskar-se"},{"id":176,"cityA":{"id":169,"country":"FI","latitude":60.45148,"longitude":22.26869,"name":"Turku","targetAirportCode":"TKU"},"cityB":{"id":168,"country":"AX","latitude":60.09726,"longitude":19.93481,"name":"Mariehamn","targetAirportCode":null},"distanceKm":134,"shipsCount":1,"slug":"turku-fi-mariehamn-ax"},{"id":18,"cityA":{"id":12,"country":"FR","latitude":49.2896,"longitude":-0.2483,"name":"Caen-Ouistreham","targetAirportCode":"CFR"},"cityB":{"id":11,"country":"GB","latitude":50.8131,"longitude":-1.0913,"name":"Portsmouth","targetAirportCode":"SOU"},"distanceKm":179,"shipsCount":5,"slug":"caen-ouistreham-fr-portsmouth-gb"},{"id":20,"cityA":{"id":15,"country":"FR","latitude":49.6481,"longitude":-1.6123,"name":"Cherbourg","targetAirportCode":"CER"},"cityB":{"id":14,"country":"GB","latitude":50.7075,"longitude":-1.9905,"name":"Poole","targetAirportCode":"BOH"},"distanceKm":120,"shipsCount":1,"slug":"cherbourg-fr-poole-gb"},{"id":21,"cityA":{"id":15,"country":"FR","latitude":49.6481,"longitude":-1.6123,"name":"Cherbourg","targetAirportCode":"CER"},"cityB":{"id":11,"country":"GB","latitude":50.8131,"longitude":-1.0913,"name":"Portsmouth","targetAirportCode":"SOU"},"distanceKm":134,"shipsCount":1,"slug":"cherbourg-fr-portsmouth-gb"},{"id":95,"cityA":{"id":15,"country":"FR","latitude":49.6481,"longitude":-1.6123,"name":"Cherbourg","targetAirportCode":"CER"},"cityB":{"id":93,"country":"IE","latitude":52.27184,"longitude":-6.38989,"name":"Rosslare","targetAirportCode":"WAT"},"distanceKm":444,"shipsCount":2,"slug":"cherbourg-fr-rosslare-ie"},{"id":235,"cityA":{"id":218,"country":"FR","latitude":51.03297,"longitude":2.377,"name":"Dunkirk","targetAirportCode":"CQF"},"cityB":{"id":172,"country":"GB","latitude":51.12598,"longitude":1.31257,"name":"Dover","targetAirportCode":"LYX"},"distanceKm":75,"shipsCount":3,"slug":"dunkirk-fr-dover-gb"},{"id":19,"cityA":{"id":13,"country":"FR","latitude":49.4851,"longitude":0.1144,"name":"Le Havre","targetAirportCode":"LEH"},"cityB":{"id":11,"country":"GB","latitude":50.8131,"longitude":-1.0913,"name":"Portsmouth","targetAirportCode":"SOU"},"distanceKm":170,"shipsCount":3,"slug":"le-havre-fr-portsmouth-gb"},{"id":140,"cityA":{"id":9,"country":"FR","latitude":43.3122587,"longitude":5.3641653,"name":"Marseille","targetAirportCode":"MRS"},"cityB":{"id":128,"country":"DZ","latitude":36.73225,"longitude":3.08746,"name":"Algiers","targetAirportCode":"ALG"},"distanceKm":757,"shipsCount":2,"slug":"marseille-fr-algiers-dz"},{"id":13,"cityA":{"id":9,"country":"FR","latitude":43.3122587,"longitude":5.3641653,"name":"Marseille","targetAirportCode":"MRS"},"cityB":{"id":2,"country":"FR","latitude":41.92723,"longitude":8.73462,"name":"Ajaccio","targetAirportCode":"AJA"},"distanceKm":316,"shipsCount":5,"slug":"marseille-fr-ajaccio-fr"},{"id":14,"cityA":{"id":9,"country":"FR","latitude":43.3122587,"longitude":5.3641653,"name":"Marseille","targetAirportCode":"MRS"},"cityB":{"id":3,"country":"FR","latitude":42.6962224,"longitude":9.4500042,"name":"Bastia","targetAirportCode":"BIA"},"distanceKm":339,"shipsCount":5,"slug":"marseille-fr-bastia-fr"},{"id":15,"cityA":{"id":9,"country":"FR","latitude":43.3122587,"longitude":5.3641653,"name":"Marseille","targetAirportCode":"MRS"},"cityB":{"id":4,"country":"FR","latitude":42.641653,"longitude":8.9381714,"name":"Île-Rousse","targetAirportCode":"CLY"},"distanceKm":300,"shipsCount":3,"slug":"marseille-fr-ile-rousse-fr"},{"id":16,"cityA":{"id":9,"country":"FR","latitude":43.3122587,"longitude":5.3641653,"name":"Marseille","targetAirportCode":"MRS"},"cityB":{"id":5,"country":"FR","latitude":41.587229,"longitude":9.2913172,"name":"Porto Vecchio","targetAirportCode":"FSC"},"distanceKm":375,"shipsCount":2,"slug":"marseille-fr-porto-vecchio-fr"},{"id":142,"cityA":{"id":9,"country":"FR","latitude":43.3122587,"longitude":5.3641653,"name":"Marseille","targetAirportCode":"MRS"},"cityB":{"id":129,"country":"FR","latitude":41.6759,"longitude":8.90412,"name":"Propriano","targetAirportCode":"FSC"},"distanceKm":342,"shipsCount":1,"slug":"marseille-fr-propriano-fr"},{"id":141,"cityA":{"id":9,"country":"FR","latitude":43.3122587,"longitude":5.3641653,"name":"Marseille","targetAirportCode":"MRS"},"cityB":{"id":114,"country":"TN","latitude":36.81897,"longitude":10.16579,"name":"Tunis","targetAirportCode":"TUN"},"distanceKm":830,"shipsCount":3,"slug":"marseille-fr-tunis-tn"},{"id":5,"cityA":{"id":6,"country":"FR","latitude":43.6930219,"longitude":7.2849447,"name":"Nice","targetAirportCode":"NCE"},"cityB":{"id":2,"country":"FR","latitude":41.92723,"longitude":8.73462,"name":"Ajaccio","targetAirportCode":"AJA"},"distanceKm":229,"shipsCount":4,"slug":"nice-fr-ajaccio-fr"},{"id":6,"cityA":{"id":6,"country":"FR","latitude":43.6930219,"longitude":7.2849447,"name":"Nice","targetAirportCode":"NCE"},"cityB":{"id":3,"country":"FR","latitude":42.6962224,"longitude":9.4500042,"name":"Bastia","targetAirportCode":"BIA"},"distanceKm":207,"shipsCount":7,"slug":"nice-fr-bastia-fr"},{"id":7,"cityA":{"id":6,"country":"FR","latitude":43.6930219,"longitude":7.2849447,"name":"Nice","targetAirportCode":"NCE"},"cityB":{"id":4,"country":"FR","latitude":42.641653,"longitude":8.9381714,"name":"Île-Rousse","targetAirportCode":"CLY"},"distanceKm":178,"shipsCount":5,"slug":"nice-fr-ile-rousse-fr"},{"id":8,"cityA":{"id":6,"country":"FR","latitude":43.6930219,"longitude":7.2849447,"name":"Nice","targetAirportCode":"NCE"},"cityB":{"id":5,"country":"FR","latitude":41.587229,"longitude":9.2913172,"name":"Porto Vecchio","targetAirportCode":"FSC"},"distanceKm":286,"shipsCount":3,"slug":"nice-fr-porto-vecchio-fr"},{"id":152,"cityA":{"id":142,"country":"FR","latitude":48.72381,"longitude":-3.98709,"name":"Roscoff","targetAirportCode":"MXN"},"cityB":{"id":141,"country":"GB","latitude":50.37153,"longitude":-4.14305,"name":"Plymouth","targetAirportCode":"NQY"},"distanceKm":183,"shipsCount":1,"slug":"roscoff-fr-plymouth-gb"},{"id":155,"cityA":{"id":142,"country":"FR","latitude":48.72381,"longitude":-3.98709,"name":"Roscoff","targetAirportCode":"MXN"},"cityB":{"id":146,"country":"IE","latitude":51.83389,"longitude":-8.31694,"name":"Ringaskiddy","targetAirportCode":"ORK"},"distanceKm":463,"shipsCount":1,"slug":"roscoff-fr-ringaskiddy-ie"},{"id":17,"cityA":{"id":10,"country":"FR","latitude":48.6411502,"longitude":-2.0277292,"name":"Saint-Malo","targetAirportCode":"DNR"},"cityB":{"id":11,"country":"GB","latitude":50.8131,"longitude":-1.0913,"name":"Portsmouth","targetAirportCode":"SOU"},"distanceKm":250,"shipsCount":3,"slug":"saint-malo-fr-portsmouth-gb"},{"id":1,"cityA":{"id":1,"country":"FR","latitude":43.11667,"longitude":5.93333,"name":"Toulon","targetAirportCode":"TLN"},"cityB":{"id":2,"country":"FR","latitude":41.92723,"longitude":8.73462,"name":"Ajaccio","targetAirportCode":"AJA"},"distanceKm":265,"shipsCount":8,"slug":"toulon-fr-ajaccio-fr"},{"id":3,"cityA":{"id":1,"country":"FR","latitude":43.11667,"longitude":5.93333,"name":"Toulon","targetAirportCode":"TLN"},"cityB":{"id":3,"country":"FR","latitude":42.6962224,"longitude":9.4500042,"name":"Bastia","targetAirportCode":"BIA"},"distanceKm":290,"shipsCount":6,"slug":"toulon-fr-bastia-fr"},{"id":2,"cityA":{"id":1,"country":"FR","latitude":43.11667,"longitude":5.93333,"name":"Toulon","targetAirportCode":"TLN"},"cityB":{"id":4,"country":"FR","latitude":42.641653,"longitude":8.9381714,"name":"Île-Rousse","targetAirportCode":"CLY"},"distanceKm":250,"shipsCount":5,"slug":"toulon-fr-ile-rousse-fr"},{"id":4,"cityA":{"id":1,"country":"FR","latitude":43.11667,"longitude":5.93333,"name":"Toulon","targetAirportCode":"TLN"},"cityB":{"id":5,"country":"FR","latitude":41.587229,"longitude":9.2913172,"name":"Porto Vecchio","targetAirportCode":"FSC"},"distanceKm":324,"shipsCount":5,"slug":"toulon-fr-porto-vecchio-fr"},{"id":194,"cityA":{"id":178,"country":"GB","latitude":55.65018,"longitude":-4.80659,"name":"Ardrossan","targetAirportCode":"PIK"},"cityB":{"id":179,"country":"GB","latitude":55.57539,"longitude":-5.14717,"name":"Brodick","targetAirportCode":"PIK"},"distanceKm":22,"shipsCount":1,"slug":"ardrossan-gb-brodick-gb"},{"id":88,"cityA":{"id":85,"country":"GB","latitude":54.59682,"longitude":-5.92541,"name":"Belfast","targetAirportCode":"BHD"},"cityB":{"id":86,"country":"GB","latitude":54.97104,"longitude":-5.01982,"name":"Cairnryan","targetAirportCode":"PIK"},"distanceKm":71,"shipsCount":2,"slug":"belfast-gb-cairnryan-gb"},{"id":89,"cityA":{"id":85,"country":"GB","latitude":54.59682,"longitude":-5.92541,"name":"Belfast","targetAirportCode":"BHD"},"cityB":{"id":87,"country":"GB","latitude":53.39337,"longitude":-3.01479,"name":"Liverpool Birkenhead","targetAirportCode":"LPL"},"distanceKm":232,"shipsCount":2,"slug":"belfast-gb-liverpool-birkenhead-gb"},{"id":93,"cityA":{"id":86,"country":"GB","latitude":54.97104,"longitude":-5.01982,"name":"Cairnryan","targetAirportCode":"PIK"},"cityB":{"id":91,"country":"GB","latitude":54.85,"longitude":-5.81667,"name":"Larne","targetAirportCode":"BHD"},"distanceKm":52,"shipsCount":1,"slug":"cairnryan-gb-larne-gb"},{"id":184,"cityA":{"id":172,"country":"GB","latitude":51.12598,"longitude":1.31257,"name":"Dover","targetAirportCode":"LYX"},"cityB":{"id":173,"country":"FR","latitude":50.95194,"longitude":1.85635,"name":"Calais","targetAirportCode":"CQF"},"distanceKm":42,"shipsCount":3,"slug":"dover-gb-calais-fr"},{"id":111,"cityA":{"id":104,"country":"GB","latitude":51.99376,"longitude":-4.97631,"name":"Fishguard","targetAirportCode":"HAW"},"cityB":{"id":93,"country":"IE","latitude":52.27184,"longitude":-6.38989,"name":"Rosslare","targetAirportCode":"WAT"},"distanceKm":101,"shipsCount":1,"slug":"fishguard-gb-rosslare-ie"},{"id":130,"cityA":{"id":115,"country":"GB","latitude":51.94194,"longitude":1.28437,"name":"Harwich","targetAirportCode":"BEQ"},"cityB":{"id":116,"country":"NL","latitude":51.9775,"longitude":4.13333,"name":"Hoek van Holland","targetAirportCode":"RTM"},"distanceKm":195,"shipsCount":1,"slug":"harwich-gb-hoek-van-holland-nl"},{"id":232,"cityA":{"id":215,"country":"GB","latitude":58.98479,"longitude":-2.95873,"name":"Kirkwall","targetAirportCode":"KOI"},"cityB":{"id":214,"country":"GB","latitude":57.14369,"longitude":-2.09814,"name":"Aberdeen","targetAirportCode":"ABZ"},"distanceKm":211,"shipsCount":2,"slug":"kirkwall-gb-aberdeen-gb"},{"id":230,"cityA":{"id":213,"country":"GB","latitude":60.15339,"longitude":-1.14427,"name":"Lerwick","targetAirportCode":"LSI"},"cityB":{"id":214,"country":"GB","latitude":57.14369,"longitude":-2.09814,"name":"Aberdeen","targetAirportCode":"ABZ"},"distanceKm":339,"shipsCount":2,"slug":"lerwick-gb-aberdeen-gb"},{"id":231,"cityA":{"id":213,"country":"GB","latitude":60.15339,"longitude":-1.14427,"name":"Lerwick","targetAirportCode":"LSI"},"cityB":{"id":215,"country":"GB","latitude":58.98479,"longitude":-2.95873,"name":"Kirkwall","targetAirportCode":"KOI"},"distanceKm":165,"shipsCount":2,"slug":"lerwick-gb-kirkwall-gb"},{"id":209,"cityA":{"id":87,"country":"GB","latitude":53.39337,"longitude":-3.01479,"name":"Liverpool Birkenhead","targetAirportCode":"LPL"},"cityB":{"id":193,"country":"IM","latitude":54.15,"longitude":-4.48333,"name":"Douglas","targetAirportCode":"IOM"},"distanceKm":128,"shipsCount":1,"slug":"liverpool-birkenhead-gb-douglas-im"},{"id":240,"cityA":{"id":221,"country":"GB","latitude":50.79693,"longitude":0.05545,"name":"Newhaven","targetAirportCode":"ESH"},"cityB":{"id":222,"country":"FR","latitude":49.9216,"longitude":1.07772,"name":"Dieppe","targetAirportCode":"XAB"},"distanceKm":121,"shipsCount":1,"slug":"newhaven-gb-dieppe-fr"},{"id":173,"cityA":{"id":166,"country":"GB","latitude":55.01646,"longitude":-1.44925,"name":"North Shields","targetAirportCode":"NCL"},"cityB":{"id":165,"country":"NL","latitude":52.4603,"longitude":4.61048,"name":"IJmuiden","targetAirportCode":"AMS"},"distanceKm":489,"shipsCount":2,"slug":"north-shields-gb-ijmuiden-nl"},{"id":197,"cityA":{"id":184,"country":"GB","latitude":56.41535,"longitude":-5.47184,"name":"Oban","targetAirportCode":"TRE"},"cityB":{"id":185,"country":"GB","latitude":56.95499,"longitude":-7.48924,"name":"Castlebay","targetAirportCode":"BRR"},"distanceKm":137,"shipsCount":2,"slug":"oban-gb-castlebay-gb"},{"id":211,"cityA":{"id":184,"country":"GB","latitude":56.41535,"longitude":-5.47184,"name":"Oban","targetAirportCode":"TRE"},"cityB":{"id":194,"country":"GB","latitude":56.62451,"longitude":-6.56261,"name":"Coll","targetAirportCode":"TRE"},"distanceKm":70,"shipsCount":1,"slug":"oban-gb-coll-gb"},{"id":212,"cityA":{"id":184,"country":"GB","latitude":56.41535,"longitude":-5.47184,"name":"Oban","targetAirportCode":"TRE"},"cityB":{"id":196,"country":"GB","latitude":56.08104,"longitude":-6.21191,"name":"Colonsay","targetAirportCode":"ILY"},"distanceKm":58,"shipsCount":1,"slug":"oban-gb-colonsay-gb"},{"id":210,"cityA":{"id":184,"country":"GB","latitude":56.41535,"longitude":-5.47184,"name":"Oban","targetAirportCode":"TRE"},"cityB":{"id":195,"country":"GB","latitude":56.50396,"longitude":-6.81019,"name":"Scarinish","targetAirportCode":"TRE"},"distanceKm":82,"shipsCount":1,"slug":"oban-gb-scarinish-gb"},{"id":143,"cityA":{"id":11,"country":"GB","latitude":50.8131,"longitude":-1.0913,"name":"Portsmouth","targetAirportCode":"SOU"},"cityB":{"id":131,"country":"ES","latitude":43.26271,"longitude":-2.92528,"name":"Bilbao","targetAirportCode":"BIO"},"distanceKm":851,"shipsCount":1,"slug":"portsmouth-gb-bilbao-es"},{"id":144,"cityA":{"id":11,"country":"GB","latitude":50.8131,"longitude":-1.0913,"name":"Portsmouth","targetAirportCode":"SOU"},"cityB":{"id":130,"country":"ES","latitude":43.46472,"longitude":-3.80444,"name":"Santander","targetAirportCode":"SDR"},"distanceKm":843,"shipsCount":1,"slug":"portsmouth-gb-santander-es"},{"id":229,"cityA":{"id":11,"country":"GB","latitude":50.8131,"longitude":-1.0913,"name":"Portsmouth","targetAirportCode":"SOU"},"cityB":{"id":212,"country":"GB","latitude":50.83641,"longitude":-0.82088,"name":"Fishbourne","targetAirportCode":"ESH"},"distanceKm":19,"shipsCount":1,"slug":"portsmouth-gb-fishbourne-gb"},{"id":233,"cityA":{"id":216,"country":"GB","latitude":58.61277,"longitude":-3.54627,"name":"Scrabster","targetAirportCode":"WIC"},"cityB":{"id":217,"country":"GS","latitude":-54.15611,"longitude":-36.71611,"name":"Stromness","targetAirportCode":null},"distanceKm":12898,"shipsCount":1,"slug":"scrabster-gb-stromness-gs"},{"id":222,"cityA":{"id":203,"country":"GB","latitude":57.58453,"longitude":-6.3549,"name":"Uig","targetAirportCode":"BEB"},"cityB":{"id":204,"country":"GB","latitude":57.6,"longitude":-7.18333,"name":"Lochmaddy","targetAirportCode":"BEB"},"distanceKm":49,"shipsCount":1,"slug":"uig-gb-lochmaddy-gb"},{"id":223,"cityA":{"id":203,"country":"GB","latitude":57.58453,"longitude":-6.3549,"name":"Uig","targetAirportCode":"BEB"},"cityB":{"id":205,"country":"GB","latitude":55.86277,"longitude":-5.41622,"name":"Tarbert","targetAirportCode":"CAL"},"distanceKm":200,"shipsCount":1,"slug":"uig-gb-tarbert-gb"},{"id":126,"cityA":{"id":110,"country":"GG","latitude":49.45981,"longitude":-2.53527,"name":"Guernesey","targetAirportCode":"GCI"},"cityB":{"id":10,"country":"FR","latitude":48.6411502,"longitude":-2.0277292,"name":"Saint-Malo","targetAirportCode":"DNR"},"distanceKm":98,"shipsCount":2,"slug":"guernesey-gg-saint-malo-fr"},{"id":125,"cityA":{"id":110,"country":"GG","latitude":49.45981,"longitude":-2.53527,"name":"Guernesey","targetAirportCode":"GCI"},"cityB":{"id":11,"country":"GB","latitude":50.8131,"longitude":-1.0913,"name":"Portsmouth","targetAirportCode":"SOU"},"distanceKm":182,"shipsCount":1,"slug":"guernesey-gg-portsmouth-gb"},{"id":124,"cityA":{"id":110,"country":"GG","latitude":49.45981,"longitude":-2.53527,"name":"Guernesey","targetAirportCode":"GCI"},"cityB":{"id":111,"country":"JE","latitude":49.18804,"longitude":-2.10491,"name":"Jersey (St Helier)","targetAirportCode":"JER"},"distanceKm":43,"shipsCount":1,"slug":"guernesey-gg-jersey-st-helier-je"},{"id":54,"cityA":{"id":46,"country":"GR","latitude":39.53889,"longitude":24.99167,"name":"Agios Efstratios","targetAirportCode":"JSI"},"cityB":{"id":47,"country":"GR","latitude":40.93959,"longitude":24.40687,"name":"Kavala","targetAirportCode":"KVA"},"distanceKm":163,"shipsCount":1,"slug":"agios-efstratios-gr-kavala-gr"},{"id":55,"cityA":{"id":46,"country":"GR","latitude":39.53889,"longitude":24.99167,"name":"Agios Efstratios","targetAirportCode":"JSI"},"cityB":{"id":48,"country":"GR","latitude":39.87483,"longitude":25.06359,"name":"Limnos (Myrina)","targetAirportCode":"KVA"},"distanceKm":37,"shipsCount":1,"slug":"agios-efstratios-gr-limnos-myrina-gr"},{"id":56,"cityA":{"id":49,"country":"GR","latitude":37.78773,"longitude":20.83085,"name":"Agios Kirikos","targetAirportCode":"ZTH"},"cityB":{"id":50,"country":"GR","latitude":37.5785,"longitude":26.48069,"name":"Fournoi","targetAirportCode":"SMI"},"distanceKm":498,"shipsCount":1,"slug":"agios-kirikos-gr-fournoi-gr"},{"id":57,"cityA":{"id":49,"country":"GR","latitude":37.78773,"longitude":20.83085,"name":"Agios Kirikos","targetAirportCode":"ZTH"},"cityB":{"id":51,"country":"GR","latitude":39.10772,"longitude":26.55529,"name":"Mytilene","targetAirportCode":"MJT"},"distanceKm":520,"shipsCount":1,"slug":"agios-kirikos-gr-mytilene-gr"},{"id":71,"cityA":{"id":71,"country":"GR","latitude":36.55,"longitude":26.35,"name":"Astypalea","targetAirportCode":"KGS"},"cityB":{"id":72,"country":"GR","latitude":36.9503,"longitude":26.98388,"name":"Kalymnos","targetAirportCode":"KGS"},"distanceKm":71,"shipsCount":1,"slug":"astypalea-gr-kalymnos-gr"},{"id":72,"cityA":{"id":71,"country":"GR","latitude":36.55,"longitude":26.35,"name":"Astypalea","targetAirportCode":"KGS"},"cityB":{"id":73,"country":"GR","latitude":36.14889,"longitude":29.59361,"name":"Kastelorizo","targetAirportCode":"RHO"},"distanceKm":294,"shipsCount":1,"slug":"astypalea-gr-kastelorizo-gr"},{"id":73,"cityA":{"id":71,"country":"GR","latitude":36.55,"longitude":26.35,"name":"Astypalea","targetAirportCode":"KGS"},"cityB":{"id":74,"country":"GR","latitude":37.94203,"longitude":23.64619,"name":"Le Pirée","targetAirportCode":"ATH"},"distanceKm":285,"shipsCount":1,"slug":"astypalea-gr-le-piree-gr"},{"id":76,"cityA":{"id":71,"country":"GR","latitude":36.55,"longitude":26.35,"name":"Astypalea","targetAirportCode":"KGS"},"cityB":{"id":77,"country":"GR","latitude":36.43556,"longitude":28.22199,"name":"Rhodes","targetAirportCode":"RHO"},"distanceKm":167,"shipsCount":1,"slug":"astypalea-gr-rhodes-gr"},{"id":77,"cityA":{"id":71,"country":"GR","latitude":36.55,"longitude":26.35,"name":"Astypalea","targetAirportCode":"KGS"},"cityB":{"id":78,"country":"GR","latitude":36.61547,"longitude":27.83619,"name":"Symi (Simi)","targetAirportCode":"RHO"},"distanceKm":133,"shipsCount":1,"slug":"astypalea-gr-symi-simi-gr"},{"id":79,"cityA":{"id":71,"country":"GR","latitude":36.55,"longitude":26.35,"name":"Astypalea","targetAirportCode":"KGS"},"cityB":{"id":80,"country":"GR","latitude":36.45505,"longitude":27.34563,"name":"Tilos","targetAirportCode":"KGS"},"distanceKm":89,"shipsCount":1,"slug":"astypalea-gr-tilos-gr"},{"id":94,"cityA":{"id":92,"country":"GR","latitude":35.51124,"longitude":24.02921,"name":"Chania","targetAirportCode":"CHQ"},"cityB":{"id":74,"country":"GR","latitude":37.94203,"longitude":23.64619,"name":"Le Pirée","targetAirportCode":"ATH"},"distanceKm":272,"shipsCount":3,"slug":"chania-gr-le-piree-gr"},{"id":96,"cityA":{"id":94,"country":"GR","latitude":38.36875,"longitude":26.13718,"name":"Chios","targetAirportCode":"JKH"},"cityB":{"id":50,"country":"GR","latitude":37.5785,"longitude":26.48069,"name":"Fournoi","targetAirportCode":"SMI"},"distanceKm":92,"shipsCount":1,"slug":"chios-gr-fournoi-gr"},{"id":97,"cityA":{"id":94,"country":"GR","latitude":38.36875,"longitude":26.13718,"name":"Chios","targetAirportCode":"JKH"},"cityB":{"id":95,"country":"GR","latitude":37.79209,"longitude":26.7049,"name":"Karlovassi","targetAirportCode":"SMI"},"distanceKm":81,"shipsCount":1,"slug":"chios-gr-karlovassi-gr"},{"id":98,"cityA":{"id":94,"country":"GR","latitude":38.36875,"longitude":26.13718,"name":"Chios","targetAirportCode":"JKH"},"cityB":{"id":47,"country":"GR","latitude":40.93959,"longitude":24.40687,"name":"Kavala","targetAirportCode":"KVA"},"distanceKm":322,"shipsCount":1,"slug":"chios-gr-kavala-gr"},{"id":99,"cityA":{"id":94,"country":"GR","latitude":38.36875,"longitude":26.13718,"name":"Chios","targetAirportCode":"JKH"},"cityB":{"id":74,"country":"GR","latitude":37.94203,"longitude":23.64619,"name":"Le Pirée","targetAirportCode":"ATH"},"distanceKm":223,"shipsCount":2,"slug":"chios-gr-le-piree-gr"},{"id":100,"cityA":{"id":94,"country":"GR","latitude":38.36875,"longitude":26.13718,"name":"Chios","targetAirportCode":"JKH"},"cityB":{"id":48,"country":"GR","latitude":39.87483,"longitude":25.06359,"name":"Limnos (Myrina)","targetAirportCode":"KVA"},"distanceKm":191,"shipsCount":1,"slug":"chios-gr-limnos-myrina-gr"},{"id":101,"cityA":{"id":94,"country":"GR","latitude":38.36875,"longitude":26.13718,"name":"Chios","targetAirportCode":"JKH"},"cityB":{"id":65,"country":"GR","latitude":37.44529,"longitude":25.32872,"name":"Mykonos","targetAirportCode":"JMK"},"distanceKm":124,"shipsCount":1,"slug":"chios-gr-mykonos-gr"},{"id":102,"cityA":{"id":94,"country":"GR","latitude":38.36875,"longitude":26.13718,"name":"Chios","targetAirportCode":"JKH"},"cityB":{"id":51,"country":"GR","latitude":39.10772,"longitude":26.55529,"name":"Mytilene","targetAirportCode":"MJT"},"distanceKm":89,"shipsCount":1,"slug":"chios-gr-mytilene-gr"},{"id":103,"cityA":{"id":94,"country":"GR","latitude":38.36875,"longitude":26.13718,"name":"Chios","targetAirportCode":"JKH"},"cityB":{"id":96,"country":"GR","latitude":38.51458,"longitude":26.22241,"name":"Oinousses","targetAirportCode":"JKH"},"distanceKm":17,"shipsCount":1,"slug":"chios-gr-oinousses-gr"},{"id":104,"cityA":{"id":94,"country":"GR","latitude":38.36875,"longitude":26.13718,"name":"Chios","targetAirportCode":"JKH"},"cityB":{"id":97,"country":"GR","latitude":38.54097,"longitude":25.56287,"name":"Psara","targetAirportCode":"JKH"},"distanceKm":53,"shipsCount":1,"slug":"chios-gr-psara-gr"},{"id":105,"cityA":{"id":94,"country":"GR","latitude":38.36875,"longitude":26.13718,"name":"Chios","targetAirportCode":"JKH"},"cityB":{"id":79,"country":"GR","latitude":37.44997,"longitude":24.93562,"name":"Syros","targetAirportCode":"JMK"},"distanceKm":146,"shipsCount":1,"slug":"chios-gr-syros-gr"},{"id":106,"cityA":{"id":94,"country":"GR","latitude":38.36875,"longitude":26.13718,"name":"Chios","targetAirportCode":"JKH"},"cityB":{"id":98,"country":"GR","latitude":38.4049,"longitude":23.60332,"name":"Vathi","targetAirportCode":"ATH"},"distanceKm":221,"shipsCount":1,"slug":"chios-gr-vathi-gr"},{"id":158,"cityA":{"id":148,"country":"GR","latitude":39.62441,"longitude":19.92016,"name":"Corfu","targetAirportCode":"CFU"},"cityB":{"id":62,"country":"GR","latitude":39.50342,"longitude":20.26728,"name":"Igoumenitsa","targetAirportCode":"CFU"},"distanceKm":32,"shipsCount":2,"slug":"corfu-gr-igoumenitsa-gr"},{"id":159,"cityA":{"id":148,"country":"GR","latitude":39.62441,"longitude":19.92016,"name":"Corfu","targetAirportCode":"CFU"},"cityB":{"id":149,"country":"GR","latitude":38.12227,"longitude":20.50246,"name":"Kefalonia","targetAirportCode":"EFL"},"distanceKm":174,"shipsCount":1,"slug":"corfu-gr-kefalonia-gr"},{"id":160,"cityA":{"id":148,"country":"GR","latitude":39.62441,"longitude":19.92016,"name":"Corfu","targetAirportCode":"CFU"},"cityB":{"id":150,"country":"GR","latitude":37.78022,"longitude":20.89555,"name":"Zakynthos","targetAirportCode":"ZTH"},"distanceKm":222,"shipsCount":1,"slug":"corfu-gr-zakynthos-gr"},{"id":113,"cityA":{"id":50,"country":"GR","latitude":37.5785,"longitude":26.48069,"name":"Fournoi","targetAirportCode":"SMI"},"cityB":{"id":95,"country":"GR","latitude":37.79209,"longitude":26.7049,"name":"Karlovassi","targetAirportCode":"SMI"},"distanceKm":30,"shipsCount":1,"slug":"fournoi-gr-karlovassi-gr"},{"id":114,"cityA":{"id":50,"country":"GR","latitude":37.5785,"longitude":26.48069,"name":"Fournoi","targetAirportCode":"SMI"},"cityB":{"id":47,"country":"GR","latitude":40.93959,"longitude":24.40687,"name":"Kavala","targetAirportCode":"KVA"},"distanceKm":414,"shipsCount":1,"slug":"fournoi-gr-kavala-gr"},{"id":115,"cityA":{"id":50,"country":"GR","latitude":37.5785,"longitude":26.48069,"name":"Fournoi","targetAirportCode":"SMI"},"cityB":{"id":74,"country":"GR","latitude":37.94203,"longitude":23.64619,"name":"Le Pirée","targetAirportCode":"ATH"},"distanceKm":252,"shipsCount":1,"slug":"fournoi-gr-le-piree-gr"},{"id":116,"cityA":{"id":50,"country":"GR","latitude":37.5785,"longitude":26.48069,"name":"Fournoi","targetAirportCode":"SMI"},"cityB":{"id":48,"country":"GR","latitude":39.87483,"longitude":25.06359,"name":"Limnos (Myrina)","targetAirportCode":"KVA"},"distanceKm":283,"shipsCount":1,"slug":"fournoi-gr-limnos-myrina-gr"},{"id":117,"cityA":{"id":50,"country":"GR","latitude":37.5785,"longitude":26.48069,"name":"Fournoi","targetAirportCode":"SMI"},"cityB":{"id":65,"country":"GR","latitude":37.44529,"longitude":25.32872,"name":"Mykonos","targetAirportCode":"JMK"},"distanceKm":102,"shipsCount":1,"slug":"fournoi-gr-mykonos-gr"},{"id":118,"cityA":{"id":50,"country":"GR","latitude":37.5785,"longitude":26.48069,"name":"Fournoi","targetAirportCode":"SMI"},"cityB":{"id":51,"country":"GR","latitude":39.10772,"longitude":26.55529,"name":"Mytilene","targetAirportCode":"MJT"},"distanceKm":170,"shipsCount":1,"slug":"fournoi-gr-mytilene-gr"},{"id":119,"cityA":{"id":50,"country":"GR","latitude":37.5785,"longitude":26.48069,"name":"Fournoi","targetAirportCode":"SMI"},"cityB":{"id":79,"country":"GR","latitude":37.44997,"longitude":24.93562,"name":"Syros","targetAirportCode":"JMK"},"distanceKm":137,"shipsCount":1,"slug":"fournoi-gr-syros-gr"},{"id":120,"cityA":{"id":50,"country":"GR","latitude":37.5785,"longitude":26.48069,"name":"Fournoi","targetAirportCode":"SMI"},"cityB":{"id":98,"country":"GR","latitude":38.4049,"longitude":23.60332,"name":"Vathi","targetAirportCode":"ATH"},"distanceKm":268,"shipsCount":1,"slug":"fournoi-gr-vathi-gr"},{"id":134,"cityA":{"id":121,"country":"GR","latitude":35.32787,"longitude":25.14341,"name":"Héraklion","targetAirportCode":"HER"},"cityB":{"id":74,"country":"GR","latitude":37.94203,"longitude":23.64619,"name":"Le Pirée","targetAirportCode":"ATH"},"distanceKm":320,"shipsCount":3,"slug":"heraklion-gr-le-piree-gr"},{"id":135,"cityA":{"id":121,"country":"GR","latitude":35.32787,"longitude":25.14341,"name":"Héraklion","targetAirportCode":"HER"},"cityB":{"id":122,"country":"GR","latitude":36.74536,"longitude":24.4265,"name":"Milos","targetAirportCode":"JTR"},"distanceKm":170,"shipsCount":1,"slug":"heraklion-gr-milos-gr"},{"id":218,"cityA":{"id":121,"country":"GR","latitude":35.32787,"longitude":25.14341,"name":"Héraklion","targetAirportCode":"HER"},"cityB":{"id":136,"country":"GR","latitude":36.35816,"longitude":25.44615,"name":"Santorini - Emporeío","targetAirportCode":"JTR"},"distanceKm":117,"shipsCount":1,"slug":"heraklion-gr-santorini-emporeio-gr"},{"id":136,"cityA":{"id":62,"country":"GR","latitude":39.50342,"longitude":20.26728,"name":"Igoumenitsa","targetAirportCode":"CFU"},"cityB":{"id":123,"country":"IT","latitude":45.43713,"longitude":12.33265,"name":"Venise","targetAirportCode":"VCE"},"distanceKm":926,"shipsCount":1,"slug":"igoumenitsa-gr-venise-it"},{"id":149,"cityA":{"id":74,"country":"GR","latitude":37.94203,"longitude":23.64619,"name":"Le Pirée","targetAirportCode":"ATH"},"cityB":{"id":136,"country":"GR","latitude":36.35816,"longitude":25.44615,"name":"Santorini - Emporeío","targetAirportCode":"JTR"},"distanceKm":237,"shipsCount":3,"slug":"le-piree-gr-santorini-emporeio-gr"},{"id":180,"cityA":{"id":51,"country":"GR","latitude":39.10772,"longitude":26.55529,"name":"Mytilene","targetAirportCode":"MJT"},"cityB":{"id":74,"country":"GR","latitude":37.94203,"longitude":23.64619,"name":"Le Pirée","targetAirportCode":"ATH"},"distanceKm":284,"shipsCount":1,"slug":"mytilene-gr-le-piree-gr"},{"id":179,"cityA":{"id":96,"country":"GR","latitude":38.51458,"longitude":26.22241,"name":"Oinousses","targetAirportCode":"JKH"},"cityB":{"id":74,"country":"GR","latitude":37.94203,"longitude":23.64619,"name":"Le Pirée","targetAirportCode":"ATH"},"distanceKm":234,"shipsCount":1,"slug":"oinousses-gr-le-piree-gr"},{"id":234,"cityA":{"id":63,"country":"GR","latitude":38.24444,"longitude":21.73444,"name":"Patras","targetAirportCode":"GPA"},"cityB":{"id":62,"country":"GR","latitude":39.50342,"longitude":20.26728,"name":"Igoumenitsa","targetAirportCode":"CFU"},"distanceKm":189,"shipsCount":2,"slug":"patras-gr-igoumenitsa-gr"},{"id":178,"cityA":{"id":97,"country":"GR","latitude":38.54097,"longitude":25.56287,"name":"Psara","targetAirportCode":"JKH"},"cityB":{"id":74,"country":"GR","latitude":37.94203,"longitude":23.64619,"name":"Le Pirée","targetAirportCode":"ATH"},"distanceKm":180,"shipsCount":1,"slug":"psara-gr-le-piree-gr"},{"id":175,"cityA":{"id":135,"country":"HR","latitude":43.50891,"longitude":16.43915,"name":"Split","targetAirportCode":"SPU"},"cityB":{"id":167,"country":"HR","latitude":43.06194,"longitude":16.18306,"name":"Vis","targetAirportCode":"BWK"},"distanceKm":53,"shipsCount":1,"slug":"split-hr-vis-hr"},{"id":198,"cityA":{"id":186,"country":"HR","latitude":44.11972,"longitude":15.24222,"name":"Zadar","targetAirportCode":"ZAD"},"cityB":{"id":134,"country":"IT","latitude":43.5942,"longitude":13.50337,"name":"Ancona","targetAirportCode":"AOI"},"distanceKm":151,"shipsCount":1,"slug":"zadar-hr-ancona-it"},{"id":217,"cityA":{"id":202,"country":"IE","latitude":53.33306,"longitude":-6.24889,"name":"Dublin","targetAirportCode":"DUB"},"cityB":{"id":201,"country":"GB","latitude":53.30621,"longitude":-4.63211,"name":"Holyhead","targetAirportCode":"VLY"},"distanceKm":107,"shipsCount":3,"slug":"dublin-ie-holyhead-gb"},{"id":201,"cityA":{"id":93,"country":"IE","latitude":52.27184,"longitude":-6.38989,"name":"Rosslare","targetAirportCode":"WAT"},"cityB":{"id":189,"country":"GB","latitude":51.67464,"longitude":-4.91286,"name":"Pembroke","targetAirportCode":"HAW"},"distanceKm":121,"shipsCount":1,"slug":"rosslare-ie-pembroke-gb"},{"id":214,"cityA":{"id":193,"country":"IM","latitude":54.15,"longitude":-4.48333,"name":"Douglas","targetAirportCode":"IOM"},"cityB":{"id":197,"country":"GB","latitude":54.04367,"longitude":-2.89322,"name":"Heysham","targetAirportCode":"BWF"},"distanceKm":104,"shipsCount":1,"slug":"douglas-im-heysham-gb"},{"id":63,"cityA":{"id":134,"country":"IT","latitude":43.5942,"longitude":13.50337,"name":"Ancona","targetAirportCode":"AOI"},"cityB":{"id":61,"country":"AL","latitude":41.32355,"longitude":19.45469,"name":"Durres","targetAirportCode":"TIA"},"distanceKm":549,"shipsCount":1,"slug":"ancona-it-durres-al"},{"id":64,"cityA":{"id":134,"country":"IT","latitude":43.5942,"longitude":13.50337,"name":"Ancona","targetAirportCode":"AOI"},"cityB":{"id":62,"country":"GR","latitude":39.50342,"longitude":20.26728,"name":"Igoumenitsa","targetAirportCode":"CFU"},"distanceKm":723,"shipsCount":5,"slug":"ancona-it-igoumenitsa-gr"},{"id":65,"cityA":{"id":134,"country":"IT","latitude":43.5942,"longitude":13.50337,"name":"Ancona","targetAirportCode":"AOI"},"cityB":{"id":63,"country":"GR","latitude":38.24444,"longitude":21.73444,"name":"Patras","targetAirportCode":"GPA"},"distanceKm":912,"shipsCount":5,"slug":"ancona-it-patras-gr"},{"id":148,"cityA":{"id":134,"country":"IT","latitude":43.5942,"longitude":13.50337,"name":"Ancona","targetAirportCode":"AOI"},"cityB":{"id":135,"country":"HR","latitude":43.50891,"longitude":16.43915,"name":"Split","targetAirportCode":"SPU"},"distanceKm":236,"shipsCount":2,"slug":"ancona-it-split-hr"},{"id":85,"cityA":{"id":84,"country":"IT","latitude":41.12066,"longitude":16.86982,"name":"Bari","targetAirportCode":"BRI"},"cityB":{"id":61,"country":"AL","latitude":41.32355,"longitude":19.45469,"name":"Durres","targetAirportCode":"TIA"},"distanceKm":217,"shipsCount":1,"slug":"bari-it-durres-al"},{"id":90,"cityA":{"id":88,"country":"IT","latitude":40.63215,"longitude":17.93607,"name":"Brindisi","targetAirportCode":"BDS"},"cityB":{"id":89,"country":"AL","latitude":40.4686,"longitude":19.48318,"name":"Vlora","targetAirportCode":"TIA"},"distanceKm":132,"shipsCount":1,"slug":"brindisi-it-vlora-al"},{"id":193,"cityA":{"id":88,"country":"IT","latitude":40.63215,"longitude":17.93607,"name":"Brindisi","targetAirportCode":"BDS"},"cityB":{"id":63,"country":"GR","latitude":38.24444,"longitude":21.73444,"name":"Patras","targetAirportCode":"GPA"},"distanceKm":420,"shipsCount":1,"slug":"brindisi-it-patras-gr"},{"id":221,"cityA":{"id":99,"country":"IT","latitude":42.09325,"longitude":11.79674,"name":"Civitavecchia","targetAirportCode":"FCO"},"cityB":{"id":191,"country":"IT","latitude":39.23054,"longitude":9.11917,"name":"Cagliari","targetAirportCode":"CAG"},"distanceKm":390,"shipsCount":1,"slug":"civitavecchia-it-cagliari-it"},{"id":185,"cityA":{"id":99,"country":"IT","latitude":42.09325,"longitude":11.79674,"name":"Civitavecchia","targetAirportCode":"FCO"},"cityB":{"id":133,"country":"IT","latitude":40.92337,"longitude":9.49802,"name":"Olbia","targetAirportCode":"OLB"},"distanceKm":231,"shipsCount":3,"slug":"civitavecchia-it-olbia-it"},{"id":107,"cityA":{"id":99,"country":"IT","latitude":42.09325,"longitude":11.79674,"name":"Civitavecchia","targetAirportCode":"FCO"},"cityB":{"id":100,"country":"IT","latitude":38.13205,"longitude":13.33561,"name":"Palerme","targetAirportCode":"PMO"},"distanceKm":459,"shipsCount":4,"slug":"civitavecchia-it-palerme-it"},{"id":191,"cityA":{"id":99,"country":"IT","latitude":42.09325,"longitude":11.79674,"name":"Civitavecchia","targetAirportCode":"FCO"},"cityB":{"id":114,"country":"TN","latitude":36.81897,"longitude":10.16579,"name":"Tunis","targetAirportCode":"TUN"},"distanceKm":603,"shipsCount":1,"slug":"civitavecchia-it-tunis-tn"},{"id":213,"cityA":{"id":113,"country":"IT","latitude":44.40478,"longitude":8.94439,"name":"Gênes","targetAirportCode":"GOA"},"cityB":{"id":53,"country":"ES","latitude":41.38879,"longitude":2.15899,"name":"Barcelone","targetAirportCode":"BCN"},"distanceKm":646,"shipsCount":1,"slug":"genes-it-barcelone-es"},{"id":147,"cityA":{"id":113,"country":"IT","latitude":44.40478,"longitude":8.94439,"name":"Gênes","targetAirportCode":"GOA"},"cityB":{"id":8,"country":"IT","latitude":43.5511121,"longitude":10.3012131,"name":"Livorno","targetAirportCode":"PSA"},"distanceKm":144,"shipsCount":1,"slug":"genes-it-livorno-it"},{"id":146,"cityA":{"id":113,"country":"IT","latitude":44.40478,"longitude":8.94439,"name":"Gênes","targetAirportCode":"GOA"},"cityB":{"id":133,"country":"IT","latitude":40.92337,"longitude":9.49802,"name":"Olbia","targetAirportCode":"OLB"},"distanceKm":390,"shipsCount":1,"slug":"genes-it-olbia-it"},{"id":127,"cityA":{"id":113,"country":"IT","latitude":44.40478,"longitude":8.94439,"name":"Gênes","targetAirportCode":"GOA"},"cityB":{"id":100,"country":"IT","latitude":38.13205,"longitude":13.33561,"name":"Palerme","targetAirportCode":"PMO"},"distanceKm":788,"shipsCount":2,"slug":"genes-it-palerme-it"},{"id":164,"cityA":{"id":113,"country":"IT","latitude":44.40478,"longitude":8.94439,"name":"Gênes","targetAirportCode":"GOA"},"cityB":{"id":156,"country":"IT","latitude":40.83375,"longitude":8.40531,"name":"Porto Torres","targetAirportCode":"AHO"},"distanceKm":399,"shipsCount":6,"slug":"genes-it-porto-torres-it"},{"id":128,"cityA":{"id":113,"country":"IT","latitude":44.40478,"longitude":8.94439,"name":"Gênes","targetAirportCode":"GOA"},"cityB":{"id":57,"country":"MA","latitude":35.76727,"longitude":-5.79975,"name":"Tanger Med","targetAirportCode":"TNG"},"distanceKm":1577,"shipsCount":2,"slug":"genes-it-tanger-med-ma"},{"id":129,"cityA":{"id":113,"country":"IT","latitude":44.40478,"longitude":8.94439,"name":"Gênes","targetAirportCode":"GOA"},"cityB":{"id":114,"country":"TN","latitude":36.81897,"longitude":10.16579,"name":"Tunis","targetAirportCode":"TUN"},"distanceKm":850,"shipsCount":3,"slug":"genes-it-tunis-tn"},{"id":12,"cityA":{"id":8,"country":"IT","latitude":43.5511121,"longitude":10.3012131,"name":"Livorno","targetAirportCode":"PSA"},"cityB":{"id":3,"country":"FR","latitude":42.6962224,"longitude":9.4500042,"name":"Bastia","targetAirportCode":"BIA"},"distanceKm":117,"shipsCount":9,"slug":"livorno-it-bastia-fr"},{"id":11,"cityA":{"id":8,"country":"IT","latitude":43.5511121,"longitude":10.3012131,"name":"Livorno","targetAirportCode":"PSA"},"cityB":{"id":4,"country":"FR","latitude":42.641653,"longitude":8.9381714,"name":"Île-Rousse","targetAirportCode":"CLY"},"distanceKm":150,"shipsCount":4,"slug":"livorno-it-ile-rousse-fr"},{"id":219,"cityA":{"id":8,"country":"IT","latitude":43.5511121,"longitude":10.3012131,"name":"Livorno","targetAirportCode":"PSA"},"cityB":{"id":133,"country":"IT","latitude":40.92337,"longitude":9.49802,"name":"Olbia","targetAirportCode":"OLB"},"distanceKm":299,"shipsCount":4,"slug":"livorno-it-olbia-it"},{"id":202,"cityA":{"id":190,"country":"IT","latitude":40.85216,"longitude":14.26811,"name":"Naples","targetAirportCode":"NAP"},"cityB":{"id":191,"country":"IT","latitude":39.23054,"longitude":9.11917,"name":"Cagliari","targetAirportCode":"CAG"},"distanceKm":474,"shipsCount":1,"slug":"naples-it-cagliari-it"},{"id":237,"cityA":{"id":190,"country":"IT","latitude":40.85216,"longitude":14.26811,"name":"Naples","targetAirportCode":"NAP"},"cityB":{"id":219,"country":"IT","latitude":37.49223,"longitude":15.07041,"name":"Catania","targetAirportCode":"CTA"},"distanceKm":380,"shipsCount":1,"slug":"naples-it-catania-it"},{"id":203,"cityA":{"id":190,"country":"IT","latitude":40.85216,"longitude":14.26811,"name":"Naples","targetAirportCode":"NAP"},"cityB":{"id":100,"country":"IT","latitude":38.13205,"longitude":13.33561,"name":"Palerme","targetAirportCode":"PMO"},"distanceKm":313,"shipsCount":1,"slug":"naples-it-palerme-it"},{"id":186,"cityA":{"id":100,"country":"IT","latitude":38.13205,"longitude":13.33561,"name":"Palerme","targetAirportCode":"PMO"},"cityB":{"id":133,"country":"IT","latitude":40.92337,"longitude":9.49802,"name":"Olbia","targetAirportCode":"OLB"},"distanceKm":452,"shipsCount":1,"slug":"palerme-it-olbia-it"},{"id":190,"cityA":{"id":100,"country":"IT","latitude":38.13205,"longitude":13.33561,"name":"Palerme","targetAirportCode":"PMO"},"cityB":{"id":114,"country":"TN","latitude":36.81897,"longitude":10.16579,"name":"Tunis","targetAirportCode":"TUN"},"distanceKm":315,"shipsCount":1,"slug":"palerme-it-tunis-tn"},{"id":220,"cityA":{"id":126,"country":"IT","latitude":42.92554,"longitude":10.52585,"name":"Piombino","targetAirportCode":"EBA"},"cityB":{"id":133,"country":"IT","latitude":40.92337,"longitude":9.49802,"name":"Olbia","targetAirportCode":"OLB"},"distanceKm":238,"shipsCount":3,"slug":"piombino-it-olbia-it"},{"id":139,"cityA":{"id":126,"country":"IT","latitude":42.92554,"longitude":10.52585,"name":"Piombino","targetAirportCode":"EBA"},"cityB":{"id":127,"country":"IT","latitude":42.81233,"longitude":10.31297,"name":"Portoferraio","targetAirportCode":"EBA"},"distanceKm":21,"shipsCount":2,"slug":"piombino-it-portoferraio-it"},{"id":238,"cityA":{"id":220,"country":"IT","latitude":40.67545,"longitude":14.79328,"name":"Salerno","targetAirportCode":"QSR"},"cityB":{"id":161,"country":"IT","latitude":38.19394,"longitude":15.55256,"name":"Messina","targetAirportCode":"REG"},"distanceKm":283,"shipsCount":1,"slug":"salerno-it-messina-it"},{"id":205,"cityA":{"id":7,"country":"IT","latitude":44.2627692,"longitude":8.4496462,"name":"Savona","targetAirportCode":"ALL"},"cityB":{"id":53,"country":"ES","latitude":41.38879,"longitude":2.15899,"name":"Barcelone","targetAirportCode":"BCN"},"distanceKm":604,"shipsCount":1,"slug":"savona-it-barcelone-es"},{"id":10,"cityA":{"id":7,"country":"IT","latitude":44.2627692,"longitude":8.4496462,"name":"Savona","targetAirportCode":"ALL"},"cityB":{"id":3,"country":"FR","latitude":42.6962224,"longitude":9.4500042,"name":"Bastia","targetAirportCode":"BIA"},"distanceKm":192,"shipsCount":5,"slug":"savona-it-bastia-fr"},{"id":9,"cityA":{"id":7,"country":"IT","latitude":44.2627692,"longitude":8.4496462,"name":"Savona","targetAirportCode":"ALL"},"cityB":{"id":4,"country":"FR","latitude":42.641653,"longitude":8.9381714,"name":"Île-Rousse","targetAirportCode":"CLY"},"distanceKm":184,"shipsCount":4,"slug":"savona-it-ile-rousse-fr"},{"id":206,"cityA":{"id":7,"country":"IT","latitude":44.2627692,"longitude":8.4496462,"name":"Savona","targetAirportCode":"ALL"},"cityB":{"id":57,"country":"MA","latitude":35.76727,"longitude":-5.79975,"name":"Tanger Med","targetAirportCode":"TNG"},"distanceKm":1535,"shipsCount":1,"slug":"savona-it-tanger-med-ma"},{"id":171,"cityA":{"id":162,"country":"IT","latitude":38.21991,"longitude":15.63689,"name":"Villa San Giovanni","targetAirportCode":"REG"},"cityB":{"id":161,"country":"IT","latitude":38.19394,"longitude":15.55256,"name":"Messina","targetAirportCode":"REG"},"distanceKm":7,"shipsCount":2,"slug":"villa-san-giovanni-it-messina-it"},{"id":161,"cityA":{"id":151,"country":"LV","latitude":56.50474,"longitude":21.01085,"name":"Liepāja","targetAirportCode":"LPX"},"cityB":{"id":120,"country":"DE","latitude":53.96304,"longitude":10.8709,"name":"Travemunde","targetAirportCode":"LBC"},"distanceKm":702,"shipsCount":1,"slug":"liepaja-lv-travemunde-de"},{"id":154,"cityA":{"id":57,"country":"MA","latitude":35.76727,"longitude":-5.79975,"name":"Tanger Med","targetAirportCode":"TNG"},"cityB":{"id":145,"country":"ES","latitude":36.13326,"longitude":-5.45051,"name":"Algeciras","targetAirportCode":"XRY"},"distanceKm":51,"shipsCount":2,"slug":"tanger-med-ma-algeciras-es"},{"id":195,"cityA":{"id":180,"country":"NO","latitude":60.39299,"longitude":5.32415,"name":"Bergen","targetAirportCode":"BGO"},"cityB":{"id":181,"country":"NO","latitude":69.72706,"longitude":30.04578,"name":"Kirkenes","targetAirportCode":"KKN"},"distanceKm":1537,"shipsCount":6,"slug":"bergen-no-kirkenes-no"},{"id":236,"cityA":{"id":102,"country":"NO","latitude":59.91273,"longitude":10.74609,"name":"Oslo","targetAirportCode":"OSL"},"cityB":{"id":109,"country":"DE","latitude":54.32133,"longitude":10.13489,"name":"Kiel","targetAirportCode":"KEL"},"distanceKm":623,"shipsCount":1,"slug":"oslo-no-kiel-de"},{"id":165,"cityA":{"id":102,"country":"NO","latitude":59.91273,"longitude":10.74609,"name":"Oslo","targetAirportCode":"OSL"},"cityB":{"id":105,"country":"DK","latitude":57.44073,"longitude":10.53661,"name":"Frederikshavn","targetAirportCode":"CNL"},"distanceKm":275,"shipsCount":1,"slug":"oslo-no-frederikshavn-dk"},{"id":196,"cityA":{"id":182,"country":"NO","latitude":59.13118,"longitude":10.21665,"name":"Sandefjord","targetAirportCode":"TRF"},"cityB":{"id":183,"country":"SE","latitude":58.93945,"longitude":11.1712,"name":"Strömstad","targetAirportCode":"THN"},"distanceKm":58,"shipsCount":1,"slug":"sandefjord-no-stromstad-se"},{"id":122,"cityA":{"id":107,"country":"PL","latitude":54.51889,"longitude":18.53188,"name":"Gdynia","targetAirportCode":"QYD"},"cityB":{"id":108,"country":"SE","latitude":56.16156,"longitude":15.58661,"name":"Karlskrona","targetAirportCode":"RNB"},"distanceKm":261,"shipsCount":4,"slug":"gdynia-pl-karlskrona-se"},{"id":167,"cityA":{"id":159,"country":"RU","latitude":59.93863,"longitude":30.31413,"name":"St Petersburg","targetAirportCode":"LED"},"cityB":{"id":117,"country":"FI","latitude":60.16952,"longitude":24.93545,"name":"Helsinki","targetAirportCode":"HEM"},"distanceKm":299,"shipsCount":1,"slug":"st-petersburg-ru-helsinki-fi"},{"id":168,"cityA":{"id":159,"country":"RU","latitude":59.93863,"longitude":30.31413,"name":"St Petersburg","targetAirportCode":"LED"},"cityB":{"id":118,"country":"SE","latitude":59.32938,"longitude":18.06871,"name":"Stockholm","targetAirportCode":"BMA"},"distanceKm":691,"shipsCount":1,"slug":"st-petersburg-ru-stockholm-se"},{"id":123,"cityA":{"id":106,"country":"SE","latitude":57.70716,"longitude":11.96679,"name":"Goteborg","targetAirportCode":"GSE"},"cityB":{"id":109,"country":"DE","latitude":54.32133,"longitude":10.13489,"name":"Kiel","targetAirportCode":"KEL"},"distanceKm":393,"shipsCount":2,"slug":"goteborg-se-kiel-de"},{"id":150,"cityA":{"id":137,"country":"SE","latitude":60.10048,"longitude":18.80819,"name":"Grisslehamn","targetAirportCode":"ARN"},"cityB":{"id":138,"country":"AX","latitude":60.21249,"longitude":19.61442,"name":"Eckerö","targetAirportCode":null},"distanceKm":46,"shipsCount":1,"slug":"grisslehamn-se-eckero-ax"},{"id":227,"cityA":{"id":209,"country":"SE","latitude":58.90337,"longitude":17.94793,"name":"Nynäshamn","targetAirportCode":"BMA"},"cityB":{"id":210,"country":"SE","latitude":57.64089,"longitude":18.29602,"name":"Visby","targetAirportCode":"VBY"},"distanceKm":141,"shipsCount":2,"slug":"nynashamn-se-visby-se"},{"id":228,"cityA":{"id":211,"country":"SE","latitude":57.26455,"longitude":16.44837,"name":"Oskarshamn","targetAirportCode":"KLR"},"cityB":{"id":210,"country":"SE","latitude":57.64089,"longitude":18.29602,"name":"Visby","targetAirportCode":"VBY"},"distanceKm":118,"shipsCount":2,"slug":"oskarshamn-se-visby-se"},{"id":181,"cityA":{"id":118,"country":"SE","latitude":59.32938,"longitude":18.06871,"name":"Stockholm","targetAirportCode":"BMA"},"cityB":{"id":168,"country":"AX","latitude":60.09726,"longitude":19.93481,"name":"Mariehamn","targetAirportCode":null},"distanceKm":135,"shipsCount":3,"slug":"stockholm-se-mariehamn-ax"},{"id":182,"cityA":{"id":118,"country":"SE","latitude":59.32938,"longitude":18.06871,"name":"Stockholm","targetAirportCode":"BMA"},"cityB":{"id":171,"country":"LV","latitude":56.946,"longitude":24.10589,"name":"Riga","targetAirportCode":"RIX"},"distanceKm":442,"shipsCount":2,"slug":"stockholm-se-riga-lv"},{"id":200,"cityA":{"id":140,"country":"SE","latitude":55.37514,"longitude":13.15691,"name":"Trelleborg","targetAirportCode":"MMX"},"cityB":{"id":120,"country":"DE","latitude":53.96304,"longitude":10.8709,"name":"Travemunde","targetAirportCode":"LBC"},"distanceKm":215,"shipsCount":1,"slug":"trelleborg-se-travemunde-de"},{"id":174,"cityA":{"id":140,"country":"SE","latitude":55.37514,"longitude":13.15691,"name":"Trelleborg","targetAirportCode":"MMX"},"cityB":{"id":154,"country":"PL","latitude":53.91053,"longitude":14.24712,"name":"Świnoujście","targetAirportCode":"SZZ"},"distanceKm":177,"shipsCount":2,"slug":"trelleborg-se-swinoujscie-pl"},{"id":172,"cityA":{"id":163,"country":"SE","latitude":57.10557,"longitude":12.25078,"name":"Varberg","targetAirportCode":"HAD"},"cityB":{"id":164,"country":"DK","latitude":56.41578,"longitude":10.87825,"name":"Grenå","targetAirportCode":"AAR"},"distanceKm":113,"shipsCount":1,"slug":"varberg-se-grena-dk"},{"id":163,"cityA":{"id":155,"country":"SE","latitude":55.42966,"longitude":13.82041,"name":"Ystad","targetAirportCode":"MMX"},"cityB":{"id":154,"country":"PL","latitude":53.91053,"longitude":14.24712,"name":"Świnoujście","targetAirportCode":"SZZ"},"distanceKm":171,"shipsCount":4,"slug":"ystad-se-swinoujscie-pl"},{"id":216,"cityA":{"id":200,"country":"TN","latitude":33.50398,"longitude":11.11215,"name":"Zarzis","targetAirportCode":"DJE"},"cityB":{"id":9,"country":"FR","latitude":43.3122587,"longitude":5.3641653,"name":"Marseille","targetAirportCode":"MRS"},"distanceKm":1200,"shipsCount":1,"slug":"zarzis-tn-marseille-fr"},{"id":10177,"cityA":{"id":118,"country":"SE","latitude":59.32938,"longitude":18.06871,"name":"Stockholm","targetAirportCode":"BMA"},"cityB":{"id":170,"country":"AX","latitude":60.11695,"longitude":20.25819,"name":"Lumparland","targetAirportCode":null},"distanceKm":150,"shipsCount":1,"slug":"stockholm-se-lumparland-ax"},{"id":10239,"cityA":{"id":119,"country":"EE","latitude":59.43696,"longitude":24.75353,"name":"Tallinn","targetAirportCode":"TLL"},"cityB":{"id":168,"country":"AX","latitude":60.09726,"longitude":19.93481,"name":"Mariehamn","targetAirportCode":null},"distanceKm":279,"shipsCount":1,"slug":"tallinn-ee-mariehamn-ax"},{"id":10187,"cityA":{"id":120,"country":"DE","latitude":53.96304,"longitude":10.8709,"name":"Travemunde","targetAirportCode":"LBC"},"cityB":{"id":174,"country":"DE","latitude":53.86893,"longitude":10.68729,"name":"Lübeck","targetAirportCode":"LBC"},"distanceKm":15,"shipsCount":1,"slug":"travemunde-de-lubeck-de"},{"id":10188,"cityA":{"id":175,"country":"SE","latitude":55.60587,"longitude":13.00073,"name":"Malmo","targetAirportCode":"MMX"},"cityB":{"id":174,"country":"DE","latitude":53.86893,"longitude":10.68729,"name":"Lübeck","targetAirportCode":"LBC"},"distanceKm":243,"shipsCount":1,"slug":"malmo-se-lubeck-de"},{"id":10162,"cityA":{"id":153,"country":"DK","latitude":54.69495,"longitude":11.38885,"name":"Rødby","targetAirportCode":"MRW"},"cityB":{"id":152,"country":"DE","latitude":54.49498,"longitude":11.2117,"name":"Puttgarden","targetAirportCode":"KEL"},"distanceKm":25,"shipsCount":1,"slug":"rodby-dk-puttgarden-de"},{"id":10166,"cityA":{"id":157,"country":"FI","latitude":59.83333,"longitude":22.95,"name":"Hanko","targetAirportCode":"TKU"},"cityB":{"id":158,"country":"DE","latitude":54.0887,"longitude":12.14049,"name":"Rostock","targetAirportCode":"RLG"},"distanceKm":913,"shipsCount":1,"slug":"hanko-fi-rostock-de"},{"id":10204,"cityA":{"id":140,"country":"SE","latitude":55.37514,"longitude":13.15691,"name":"Trelleborg","targetAirportCode":"MMX"},"cityB":{"id":158,"country":"DE","latitude":54.0887,"longitude":12.14049,"name":"Rostock","targetAirportCode":"RLG"},"distanceKm":157,"shipsCount":2,"slug":"trelleborg-se-rostock-de"},{"id":10151,"cityA":{"id":140,"country":"SE","latitude":55.37514,"longitude":13.15691,"name":"Trelleborg","targetAirportCode":"MMX"},"cityB":{"id":139,"country":"DE","latitude":54.5157,"longitude":13.64451,"name":"Sassnitz","targetAirportCode":"HDF"},"distanceKm":100,"shipsCount":2,"slug":"trelleborg-se-sassnitz-de"},{"id":10189,"cityA":{"id":175,"country":"SE","latitude":55.60587,"longitude":13.00073,"name":"Malmo","targetAirportCode":"MMX"},"cityB":{"id":120,"country":"DE","latitude":53.96304,"longitude":10.8709,"name":"Travemunde","targetAirportCode":"LBC"},"distanceKm":228,"shipsCount":2,"slug":"malmo-se-travemunde-de"},{"id":10108,"cityA":{"id":102,"country":"NO","latitude":59.91273,"longitude":10.74609,"name":"Oslo","targetAirportCode":"OSL"},"cityB":{"id":101,"country":"DK","latitude":55.67594,"longitude":12.56553,"name":"Copenhague","targetAirportCode":"CPH"},"distanceKm":483,"shipsCount":2,"slug":"oslo-no-copenhague-dk"},{"id":10192,"cityA":{"id":177,"country":"SE","latitude":56.04673,"longitude":12.69437,"name":"Helsingborg","targetAirportCode":"AGH"},"cityB":{"id":176,"country":"DK","latitude":56.03606,"longitude":12.6136,"name":"Elsinore","targetAirportCode":"CPH"},"distanceKm":5,"shipsCount":2,"slug":"helsingborg-se-elsinore-dk"},{"id":10121,"cityA":{"id":106,"country":"SE","latitude":57.70716,"longitude":11.96679,"name":"Goteborg","targetAirportCode":"GSE"},"cityB":{"id":105,"country":"DK","latitude":57.44073,"longitude":10.53661,"name":"Frederikshavn","targetAirportCode":"CNL"},"distanceKm":90,"shipsCount":2,"slug":"goteborg-se-frederikshavn-dk"},{"id":10215,"cityA":{"id":198,"country":"NO","latitude":58.14671,"longitude":7.9956,"name":"Kristiansand","targetAirportCode":"KRS"},"cityB":{"id":199,"country":"DK","latitude":57.58812,"longitude":9.95922,"name":"Hirtshals","targetAirportCode":"CNL"},"distanceKm":131,"shipsCount":1,"slug":"kristiansand-no-hirtshals-dk"},{"id":10061,"cityA":{"id":57,"country":"MA","latitude":35.76727,"longitude":-5.79975,"name":"Tanger Med","targetAirportCode":"TNG"},"cityB":{"id":128,"country":"DZ","latitude":36.73225,"longitude":3.08746,"name":"Algiers","targetAirportCode":"ALG"},"distanceKm":804,"shipsCount":3,"slug":"tanger-med-ma-algiers-dz"},{"id":10199,"cityA":{"id":188,"country":"SE","latitude":59.71667,"longitude":19.06667,"name":"Kapellskär","targetAirportCode":"ARN"},"cityB":{"id":187,"country":"EE","latitude":59.35667,"longitude":24.05306,"name":"Paldiski","targetAirportCode":"TLL"},"distanceKm":284,"shipsCount":2,"slug":"kapellskar-se-paldiski-ee"},{"id":10145,"cityA":{"id":132,"country":"FI","latitude":60.20963,"longitude":25.14195,"name":"Vuosaari","targetAirportCode":"HEM"},"cityB":{"id":119,"country":"EE","latitude":59.43696,"longitude":24.75353,"name":"Tallinn","targetAirportCode":"TLL"},"distanceKm":88,"shipsCount":1,"slug":"vuosaari-fi-tallinn-ee"},{"id":10169,"cityA":{"id":118,"country":"SE","latitude":59.32938,"longitude":18.06871,"name":"Stockholm","targetAirportCode":"BMA"},"cityB":{"id":119,"country":"EE","latitude":59.43696,"longitude":24.75353,"name":"Tallinn","targetAirportCode":"TLL"},"distanceKm":378,"shipsCount":2,"slug":"stockholm-se-tallinn-ee"},{"id":10225,"cityA":{"id":207,"country":"ES","latitude":35.29369,"longitude":-2.93833,"name":"Melilla","targetAirportCode":"MLN"},"cityB":{"id":58,"country":"ES","latitude":36.83814,"longitude":-2.45974,"name":"Almeria","targetAirportCode":"LEI"},"distanceKm":177,"shipsCount":1,"slug":"melilla-es-almeria-es"},{"id":10062,"cityA":{"id":59,"country":"MA","latitude":35.16813,"longitude":-2.93352,"name":"Nador","targetAirportCode":"NDR"},"cityB":{"id":58,"country":"ES","latitude":36.83814,"longitude":-2.45974,"name":"Almeria","targetAirportCode":"LEI"},"distanceKm":190,"shipsCount":2,"slug":"nador-ma-almeria-es"},{"id":10069,"cityA":{"id":69,"country":"ES","latitude":36.52672,"longitude":-6.2891,"name":"Cadiz","targetAirportCode":"ROZ"},"cityB":{"id":68,"country":"ES","latitude":28.96302,"longitude":-13.54769,"name":"Arrecife","targetAirportCode":"ACE"},"distanceKm":1081,"shipsCount":1,"slug":"cadiz-es-arrecife-es"},{"id":10070,"cityA":{"id":70,"country":"ES","latitude":28.68351,"longitude":-17.76421,"name":"Santa Cruz de La Palma","targetAirportCode":"SPC"},"cityB":{"id":68,"country":"ES","latitude":28.96302,"longitude":-13.54769,"name":"Arrecife","targetAirportCode":"ACE"},"distanceKm":412,"shipsCount":1,"slug":"santa-cruz-de-la-palma-es-arrecife-es"},{"id":10084,"cityA":{"id":83,"country":"ES","latitude":39.56939,"longitude":2.65024,"name":"Palma","targetAirportCode":"PMI"},"cityB":{"id":53,"country":"ES","latitude":41.38879,"longitude":2.15899,"name":"Barcelone","targetAirportCode":"BCN"},"distanceKm":206,"shipsCount":3,"slug":"palma-es-barcelone-es"},{"id":10083,"cityA":{"id":59,"country":"MA","latitude":35.16813,"longitude":-2.93352,"name":"Nador","targetAirportCode":"NDR"},"cityB":{"id":53,"country":"ES","latitude":41.38879,"longitude":2.15899,"name":"Barcelone","targetAirportCode":"BCN"},"distanceKm":822,"shipsCount":1,"slug":"nador-ma-barcelone-es"},{"id":10207,"cityA":{"id":57,"country":"MA","latitude":35.76727,"longitude":-5.79975,"name":"Tanger Med","targetAirportCode":"TNG"},"cityB":{"id":53,"country":"ES","latitude":41.38879,"longitude":2.15899,"name":"Barcelone","targetAirportCode":"BCN"},"distanceKm":932,"shipsCount":2,"slug":"tanger-med-ma-barcelone-es"},{"id":10091,"cityA":{"id":90,"country":"ES","latitude":28.09973,"longitude":-15.41343,"name":"Las Palmas","targetAirportCode":"LPA"},"cityB":{"id":69,"country":"ES","latitude":36.52672,"longitude":-6.2891,"name":"Cadiz","targetAirportCode":"ROZ"},"distanceKm":1269,"shipsCount":1,"slug":"las-palmas-es-cadiz-es"},{"id":10092,"cityA":{"id":70,"country":"ES","latitude":28.68351,"longitude":-17.76421,"name":"Santa Cruz de La Palma","targetAirportCode":"SPC"},"cityB":{"id":69,"country":"ES","latitude":36.52672,"longitude":-6.2891,"name":"Cadiz","targetAirportCode":"ROZ"},"distanceKm":1383,"shipsCount":1,"slug":"santa-cruz-de-la-palma-es-cadiz-es"},{"id":10109,"cityA":{"id":81,"country":"ES","latitude":38.70566,"longitude":1.42893,"name":"Formentera","targetAirportCode":"IBZ"},"cityB":{"id":103,"country":"ES","latitude":38.84078,"longitude":0.10574,"name":"Dénia","targetAirportCode":"ALC"},"distanceKm":115,"shipsCount":1,"slug":"formentera-es-denia-es"},{"id":10110,"cityA":{"id":83,"country":"ES","latitude":39.56939,"longitude":2.65024,"name":"Palma","targetAirportCode":"PMI"},"cityB":{"id":103,"country":"ES","latitude":38.84078,"longitude":0.10574,"name":"Dénia","targetAirportCode":"ALC"},"distanceKm":233,"shipsCount":1,"slug":"palma-es-denia-es"},{"id":10112,"cityA":{"id":83,"country":"ES","latitude":39.56939,"longitude":2.65024,"name":"Palma","targetAirportCode":"PMI"},"cityB":{"id":81,"country":"ES","latitude":38.70566,"longitude":1.42893,"name":"Formentera","targetAirportCode":"IBZ"},"distanceKm":142,"shipsCount":1,"slug":"palma-es-formentera-es"},{"id":10226,"cityA":{"id":207,"country":"ES","latitude":35.29369,"longitude":-2.93833,"name":"Melilla","targetAirportCode":"MLN"},"cityB":{"id":208,"country":"ES","latitude":36.72016,"longitude":-4.42034,"name":"Málaga","targetAirportCode":"AGP"},"distanceKm":207,"shipsCount":1,"slug":"melilla-es-malaga-es"},{"id":10224,"cityA":{"id":59,"country":"MA","latitude":35.16813,"longitude":-2.93352,"name":"Nador","targetAirportCode":"NDR"},"cityB":{"id":206,"country":"ES","latitude":36.75066,"longitude":-3.5179,"name":"Motril","targetAirportCode":"GRX"},"distanceKm":183,"shipsCount":1,"slug":"nador-ma-motril-es"},{"id":10170,"cityA":{"id":160,"country":"ES","latitude":39.46975,"longitude":-0.37739,"name":"Valencia","targetAirportCode":"VLC"},"cityB":{"id":83,"country":"ES","latitude":39.56939,"longitude":2.65024,"name":"Palma","targetAirportCode":"PMI"},"distanceKm":260,"shipsCount":1,"slug":"valencia-es-palma-es"},{"id":10156,"cityA":{"id":146,"country":"IE","latitude":51.83389,"longitude":-8.31694,"name":"Ringaskiddy","targetAirportCode":"ORK"},"cityB":{"id":130,"country":"ES","latitude":43.46472,"longitude":-3.80444,"name":"Santander","targetAirportCode":"SDR"},"distanceKm":990,"shipsCount":1,"slug":"ringaskiddy-ie-santander-es"},{"id":10183,"cityA":{"id":168,"country":"AX","latitude":60.09726,"longitude":19.93481,"name":"Mariehamn","targetAirportCode":null},"cityB":{"id":117,"country":"FI","latitude":60.16952,"longitude":24.93545,"name":"Helsinki","targetAirportCode":"HEM"},"distanceKm":277,"shipsCount":1,"slug":"mariehamn-ax-helsinki-fi"},{"id":10133,"cityA":{"id":120,"country":"DE","latitude":53.96304,"longitude":10.8709,"name":"Travemunde","targetAirportCode":"LBC"},"cityB":{"id":117,"country":"FI","latitude":60.16952,"longitude":24.93545,"name":"Helsinki","targetAirportCode":"HEM"},"distanceKm":1092,"shipsCount":2,"slug":"travemunde-de-helsinki-fi"},{"id":10132,"cityA":{"id":119,"country":"EE","latitude":59.43696,"longitude":24.75353,"name":"Tallinn","targetAirportCode":"TLL"},"cityB":{"id":117,"country":"FI","latitude":60.16952,"longitude":24.93545,"name":"Helsinki","targetAirportCode":"HEM"},"distanceKm":82,"shipsCount":6,"slug":"tallinn-ee-helsinki-fi"},{"id":10131,"cityA":{"id":118,"country":"SE","latitude":59.32938,"longitude":18.06871,"name":"Stockholm","targetAirportCode":"BMA"},"cityB":{"id":117,"country":"FI","latitude":60.16952,"longitude":24.93545,"name":"Helsinki","targetAirportCode":"HEM"},"distanceKm":396,"shipsCount":5,"slug":"stockholm-se-helsinki-fi"},{"id":10153,"cityA":{"id":144,"country":"SE","latitude":62.63228,"longitude":17.93794,"name":"Härnösand","targetAirportCode":"SDL"},"cityB":{"id":143,"country":"FI","latitude":62.38444,"longitude":21.22331,"name":"Kaskinen","targetAirportCode":"KHJ"},"distanceKm":171,"shipsCount":1,"slug":"harnosand-se-kaskinen-fi"},{"id":10208,"cityA":{"id":188,"country":"SE","latitude":59.71667,"longitude":19.06667,"name":"Kapellskär","targetAirportCode":"ARN"},"cityB":{"id":192,"country":"FI","latitude":60.46744,"longitude":22.02428,"name":"Naantali","targetAirportCode":"TKU"},"distanceKm":184,"shipsCount":2,"slug":"kapellskar-se-naantali-fi"},{"id":10176,"cityA":{"id":168,"country":"AX","latitude":60.09726,"longitude":19.93481,"name":"Mariehamn","targetAirportCode":null},"cityB":{"id":169,"country":"FI","latitude":60.45148,"longitude":22.26869,"name":"Turku","targetAirportCode":"TKU"},"distanceKm":134,"shipsCount":1,"slug":"mariehamn-ax-turku-fi"},{"id":10018,"cityA":{"id":11,"country":"GB","latitude":50.8131,"longitude":-1.0913,"name":"Portsmouth","targetAirportCode":"SOU"},"cityB":{"id":12,"country":"FR","latitude":49.2896,"longitude":-0.2483,"name":"Caen-Ouistreham","targetAirportCode":"CFR"},"distanceKm":179,"shipsCount":5,"slug":"portsmouth-gb-caen-ouistreham-fr"},{"id":10020,"cityA":{"id":14,"country":"GB","latitude":50.7075,"longitude":-1.9905,"name":"Poole","targetAirportCode":"BOH"},"cityB":{"id":15,"country":"FR","latitude":49.6481,"longitude":-1.6123,"name":"Cherbourg","targetAirportCode":"CER"},"distanceKm":120,"shipsCount":1,"slug":"poole-gb-cherbourg-fr"},{"id":10021,"cityA":{"id":11,"country":"GB","latitude":50.8131,"longitude":-1.0913,"name":"Portsmouth","targetAirportCode":"SOU"},"cityB":{"id":15,"country":"FR","latitude":49.6481,"longitude":-1.6123,"name":"Cherbourg","targetAirportCode":"CER"},"distanceKm":134,"shipsCount":1,"slug":"portsmouth-gb-cherbourg-fr"},{"id":10095,"cityA":{"id":93,"country":"IE","latitude":52.27184,"longitude":-6.38989,"name":"Rosslare","targetAirportCode":"WAT"},"cityB":{"id":15,"country":"FR","latitude":49.6481,"longitude":-1.6123,"name":"Cherbourg","targetAirportCode":"CER"},"distanceKm":444,"shipsCount":2,"slug":"rosslare-ie-cherbourg-fr"},{"id":10235,"cityA":{"id":172,"country":"GB","latitude":51.12598,"longitude":1.31257,"name":"Dover","targetAirportCode":"LYX"},"cityB":{"id":218,"country":"FR","latitude":51.03297,"longitude":2.377,"name":"Dunkirk","targetAirportCode":"CQF"},"distanceKm":75,"shipsCount":3,"slug":"dover-gb-dunkirk-fr"},{"id":10019,"cityA":{"id":11,"country":"GB","latitude":50.8131,"longitude":-1.0913,"name":"Portsmouth","targetAirportCode":"SOU"},"cityB":{"id":13,"country":"FR","latitude":49.4851,"longitude":0.1144,"name":"Le Havre","targetAirportCode":"LEH"},"distanceKm":170,"shipsCount":3,"slug":"portsmouth-gb-le-havre-fr"},{"id":10140,"cityA":{"id":128,"country":"DZ","latitude":36.73225,"longitude":3.08746,"name":"Algiers","targetAirportCode":"ALG"},"cityB":{"id":9,"country":"FR","latitude":43.3122587,"longitude":5.3641653,"name":"Marseille","targetAirportCode":"MRS"},"distanceKm":757,"shipsCount":2,"slug":"algiers-dz-marseille-fr"},{"id":10013,"cityA":{"id":2,"country":"FR","latitude":41.92723,"longitude":8.73462,"name":"Ajaccio","targetAirportCode":"AJA"},"cityB":{"id":9,"country":"FR","latitude":43.3122587,"longitude":5.3641653,"name":"Marseille","targetAirportCode":"MRS"},"distanceKm":316,"shipsCount":5,"slug":"ajaccio-fr-marseille-fr"},{"id":10014,"cityA":{"id":3,"country":"FR","latitude":42.6962224,"longitude":9.4500042,"name":"Bastia","targetAirportCode":"BIA"},"cityB":{"id":9,"country":"FR","latitude":43.3122587,"longitude":5.3641653,"name":"Marseille","targetAirportCode":"MRS"},"distanceKm":339,"shipsCount":5,"slug":"bastia-fr-marseille-fr"},{"id":10015,"cityA":{"id":4,"country":"FR","latitude":42.641653,"longitude":8.9381714,"name":"Île-Rousse","targetAirportCode":"CLY"},"cityB":{"id":9,"country":"FR","latitude":43.3122587,"longitude":5.3641653,"name":"Marseille","targetAirportCode":"MRS"},"distanceKm":300,"shipsCount":3,"slug":"ile-rousse-fr-marseille-fr"},{"id":10016,"cityA":{"id":5,"country":"FR","latitude":41.587229,"longitude":9.2913172,"name":"Porto Vecchio","targetAirportCode":"FSC"},"cityB":{"id":9,"country":"FR","latitude":43.3122587,"longitude":5.3641653,"name":"Marseille","targetAirportCode":"MRS"},"distanceKm":375,"shipsCount":2,"slug":"porto-vecchio-fr-marseille-fr"},{"id":10142,"cityA":{"id":129,"country":"FR","latitude":41.6759,"longitude":8.90412,"name":"Propriano","targetAirportCode":"FSC"},"cityB":{"id":9,"country":"FR","latitude":43.3122587,"longitude":5.3641653,"name":"Marseille","targetAirportCode":"MRS"},"distanceKm":342,"shipsCount":1,"slug":"propriano-fr-marseille-fr"},{"id":10141,"cityA":{"id":114,"country":"TN","latitude":36.81897,"longitude":10.16579,"name":"Tunis","targetAirportCode":"TUN"},"cityB":{"id":9,"country":"FR","latitude":43.3122587,"longitude":5.3641653,"name":"Marseille","targetAirportCode":"MRS"},"distanceKm":830,"shipsCount":3,"slug":"tunis-tn-marseille-fr"},{"id":10005,"cityA":{"id":2,"country":"FR","latitude":41.92723,"longitude":8.73462,"name":"Ajaccio","targetAirportCode":"AJA"},"cityB":{"id":6,"country":"FR","latitude":43.6930219,"longitude":7.2849447,"name":"Nice","targetAirportCode":"NCE"},"distanceKm":229,"shipsCount":4,"slug":"ajaccio-fr-nice-fr"},{"id":10006,"cityA":{"id":3,"country":"FR","latitude":42.6962224,"longitude":9.4500042,"name":"Bastia","targetAirportCode":"BIA"},"cityB":{"id":6,"country":"FR","latitude":43.6930219,"longitude":7.2849447,"name":"Nice","targetAirportCode":"NCE"},"distanceKm":207,"shipsCount":7,"slug":"bastia-fr-nice-fr"},{"id":10007,"cityA":{"id":4,"country":"FR","latitude":42.641653,"longitude":8.9381714,"name":"Île-Rousse","targetAirportCode":"CLY"},"cityB":{"id":6,"country":"FR","latitude":43.6930219,"longitude":7.2849447,"name":"Nice","targetAirportCode":"NCE"},"distanceKm":178,"shipsCount":5,"slug":"ile-rousse-fr-nice-fr"},{"id":10008,"cityA":{"id":5,"country":"FR","latitude":41.587229,"longitude":9.2913172,"name":"Porto Vecchio","targetAirportCode":"FSC"},"cityB":{"id":6,"country":"FR","latitude":43.6930219,"longitude":7.2849447,"name":"Nice","targetAirportCode":"NCE"},"distanceKm":286,"shipsCount":3,"slug":"porto-vecchio-fr-nice-fr"},{"id":10152,"cityA":{"id":141,"country":"GB","latitude":50.37153,"longitude":-4.14305,"name":"Plymouth","targetAirportCode":"NQY"},"cityB":{"id":142,"country":"FR","latitude":48.72381,"longitude":-3.98709,"name":"Roscoff","targetAirportCode":"MXN"},"distanceKm":183,"shipsCount":1,"slug":"plymouth-gb-roscoff-fr"},{"id":10155,"cityA":{"id":146,"country":"IE","latitude":51.83389,"longitude":-8.31694,"name":"Ringaskiddy","targetAirportCode":"ORK"},"cityB":{"id":142,"country":"FR","latitude":48.72381,"longitude":-3.98709,"name":"Roscoff","targetAirportCode":"MXN"},"distanceKm":463,"shipsCount":1,"slug":"ringaskiddy-ie-roscoff-fr"},{"id":10017,"cityA":{"id":11,"country":"GB","latitude":50.8131,"longitude":-1.0913,"name":"Portsmouth","targetAirportCode":"SOU"},"cityB":{"id":10,"country":"FR","latitude":48.6411502,"longitude":-2.0277292,"name":"Saint-Malo","targetAirportCode":"DNR"},"distanceKm":250,"shipsCount":3,"slug":"portsmouth-gb-saint-malo-fr"},{"id":10001,"cityA":{"id":2,"country":"FR","latitude":41.92723,"longitude":8.73462,"name":"Ajaccio","targetAirportCode":"AJA"},"cityB":{"id":1,"country":"FR","latitude":43.11667,"longitude":5.93333,"name":"Toulon","targetAirportCode":"TLN"},"distanceKm":265,"shipsCount":8,"slug":"ajaccio-fr-toulon-fr"},{"id":10003,"cityA":{"id":3,"country":"FR","latitude":42.6962224,"longitude":9.4500042,"name":"Bastia","targetAirportCode":"BIA"},"cityB":{"id":1,"country":"FR","latitude":43.11667,"longitude":5.93333,"name":"Toulon","targetAirportCode":"TLN"},"distanceKm":290,"shipsCount":6,"slug":"bastia-fr-toulon-fr"},{"id":10002,"cityA":{"id":4,"country":"FR","latitude":42.641653,"longitude":8.9381714,"name":"Île-Rousse","targetAirportCode":"CLY"},"cityB":{"id":1,"country":"FR","latitude":43.11667,"longitude":5.93333,"name":"Toulon","targetAirportCode":"TLN"},"distanceKm":250,"shipsCount":5,"slug":"ile-rousse-fr-toulon-fr"},{"id":10004,"cityA":{"id":5,"country":"FR","latitude":41.587229,"longitude":9.2913172,"name":"Porto Vecchio","targetAirportCode":"FSC"},"cityB":{"id":1,"country":"FR","latitude":43.11667,"longitude":5.93333,"name":"Toulon","targetAirportCode":"TLN"},"distanceKm":324,"shipsCount":5,"slug":"porto-vecchio-fr-toulon-fr"},{"id":10194,"cityA":{"id":179,"country":"GB","latitude":55.57539,"longitude":-5.14717,"name":"Brodick","targetAirportCode":"PIK"},"cityB":{"id":178,"country":"GB","latitude":55.65018,"longitude":-4.80659,"name":"Ardrossan","targetAirportCode":"PIK"},"distanceKm":22,"shipsCount":1,"slug":"brodick-gb-ardrossan-gb"},{"id":10088,"cityA":{"id":86,"country":"GB","latitude":54.97104,"longitude":-5.01982,"name":"Cairnryan","targetAirportCode":"PIK"},"cityB":{"id":85,"country":"GB","latitude":54.59682,"longitude":-5.92541,"name":"Belfast","targetAirportCode":"BHD"},"distanceKm":71,"shipsCount":2,"slug":"cairnryan-gb-belfast-gb"},{"id":10089,"cityA":{"id":87,"country":"GB","latitude":53.39337,"longitude":-3.01479,"name":"Liverpool Birkenhead","targetAirportCode":"LPL"},"cityB":{"id":85,"country":"GB","latitude":54.59682,"longitude":-5.92541,"name":"Belfast","targetAirportCode":"BHD"},"distanceKm":232,"shipsCount":2,"slug":"liverpool-birkenhead-gb-belfast-gb"},{"id":10093,"cityA":{"id":91,"country":"GB","latitude":54.85,"longitude":-5.81667,"name":"Larne","targetAirportCode":"BHD"},"cityB":{"id":86,"country":"GB","latitude":54.97104,"longitude":-5.01982,"name":"Cairnryan","targetAirportCode":"PIK"},"distanceKm":52,"shipsCount":1,"slug":"larne-gb-cairnryan-gb"},{"id":10184,"cityA":{"id":173,"country":"FR","latitude":50.95194,"longitude":1.85635,"name":"Calais","targetAirportCode":"CQF"},"cityB":{"id":172,"country":"GB","latitude":51.12598,"longitude":1.31257,"name":"Dover","targetAirportCode":"LYX"},"distanceKm":42,"shipsCount":3,"slug":"calais-fr-dover-gb"},{"id":10111,"cityA":{"id":93,"country":"IE","latitude":52.27184,"longitude":-6.38989,"name":"Rosslare","targetAirportCode":"WAT"},"cityB":{"id":104,"country":"GB","latitude":51.99376,"longitude":-4.97631,"name":"Fishguard","targetAirportCode":"HAW"},"distanceKm":101,"shipsCount":1,"slug":"rosslare-ie-fishguard-gb"},{"id":10130,"cityA":{"id":116,"country":"NL","latitude":51.9775,"longitude":4.13333,"name":"Hoek van Holland","targetAirportCode":"RTM"},"cityB":{"id":115,"country":"GB","latitude":51.94194,"longitude":1.28437,"name":"Harwich","targetAirportCode":"BEQ"},"distanceKm":195,"shipsCount":1,"slug":"hoek-van-holland-nl-harwich-gb"},{"id":10232,"cityA":{"id":214,"country":"GB","latitude":57.14369,"longitude":-2.09814,"name":"Aberdeen","targetAirportCode":"ABZ"},"cityB":{"id":215,"country":"GB","latitude":58.98479,"longitude":-2.95873,"name":"Kirkwall","targetAirportCode":"KOI"},"distanceKm":211,"shipsCount":2,"slug":"aberdeen-gb-kirkwall-gb"},{"id":10230,"cityA":{"id":214,"country":"GB","latitude":57.14369,"longitude":-2.09814,"name":"Aberdeen","targetAirportCode":"ABZ"},"cityB":{"id":213,"country":"GB","latitude":60.15339,"longitude":-1.14427,"name":"Lerwick","targetAirportCode":"LSI"},"distanceKm":339,"shipsCount":2,"slug":"aberdeen-gb-lerwick-gb"},{"id":10231,"cityA":{"id":215,"country":"GB","latitude":58.98479,"longitude":-2.95873,"name":"Kirkwall","targetAirportCode":"KOI"},"cityB":{"id":213,"country":"GB","latitude":60.15339,"longitude":-1.14427,"name":"Lerwick","targetAirportCode":"LSI"},"distanceKm":165,"shipsCount":2,"slug":"kirkwall-gb-lerwick-gb"},{"id":10209,"cityA":{"id":193,"country":"IM","latitude":54.15,"longitude":-4.48333,"name":"Douglas","targetAirportCode":"IOM"},"cityB":{"id":87,"country":"GB","latitude":53.39337,"longitude":-3.01479,"name":"Liverpool Birkenhead","targetAirportCode":"LPL"},"distanceKm":128,"shipsCount":1,"slug":"douglas-im-liverpool-birkenhead-gb"},{"id":10240,"cityA":{"id":222,"country":"FR","latitude":49.9216,"longitude":1.07772,"name":"Dieppe","targetAirportCode":"XAB"},"cityB":{"id":221,"country":"GB","latitude":50.79693,"longitude":0.05545,"name":"Newhaven","targetAirportCode":"ESH"},"distanceKm":121,"shipsCount":1,"slug":"dieppe-fr-newhaven-gb"},{"id":10173,"cityA":{"id":165,"country":"NL","latitude":52.4603,"longitude":4.61048,"name":"IJmuiden","targetAirportCode":"AMS"},"cityB":{"id":166,"country":"GB","latitude":55.01646,"longitude":-1.44925,"name":"North Shields","targetAirportCode":"NCL"},"distanceKm":489,"shipsCount":2,"slug":"ijmuiden-nl-north-shields-gb"},{"id":10197,"cityA":{"id":185,"country":"GB","latitude":56.95499,"longitude":-7.48924,"name":"Castlebay","targetAirportCode":"BRR"},"cityB":{"id":184,"country":"GB","latitude":56.41535,"longitude":-5.47184,"name":"Oban","targetAirportCode":"TRE"},"distanceKm":137,"shipsCount":2,"slug":"castlebay-gb-oban-gb"},{"id":10211,"cityA":{"id":194,"country":"GB","latitude":56.62451,"longitude":-6.56261,"name":"Coll","targetAirportCode":"TRE"},"cityB":{"id":184,"country":"GB","latitude":56.41535,"longitude":-5.47184,"name":"Oban","targetAirportCode":"TRE"},"distanceKm":70,"shipsCount":1,"slug":"coll-gb-oban-gb"},{"id":10212,"cityA":{"id":196,"country":"GB","latitude":56.08104,"longitude":-6.21191,"name":"Colonsay","targetAirportCode":"ILY"},"cityB":{"id":184,"country":"GB","latitude":56.41535,"longitude":-5.47184,"name":"Oban","targetAirportCode":"TRE"},"distanceKm":58,"shipsCount":1,"slug":"colonsay-gb-oban-gb"},{"id":10210,"cityA":{"id":195,"country":"GB","latitude":56.50396,"longitude":-6.81019,"name":"Scarinish","targetAirportCode":"TRE"},"cityB":{"id":184,"country":"GB","latitude":56.41535,"longitude":-5.47184,"name":"Oban","targetAirportCode":"TRE"},"distanceKm":82,"shipsCount":1,"slug":"scarinish-gb-oban-gb"},{"id":10143,"cityA":{"id":131,"country":"ES","latitude":43.26271,"longitude":-2.92528,"name":"Bilbao","targetAirportCode":"BIO"},"cityB":{"id":11,"country":"GB","latitude":50.8131,"longitude":-1.0913,"name":"Portsmouth","targetAirportCode":"SOU"},"distanceKm":851,"shipsCount":1,"slug":"bilbao-es-portsmouth-gb"},{"id":10144,"cityA":{"id":130,"country":"ES","latitude":43.46472,"longitude":-3.80444,"name":"Santander","targetAirportCode":"SDR"},"cityB":{"id":11,"country":"GB","latitude":50.8131,"longitude":-1.0913,"name":"Portsmouth","targetAirportCode":"SOU"},"distanceKm":843,"shipsCount":1,"slug":"santander-es-portsmouth-gb"},{"id":10229,"cityA":{"id":212,"country":"GB","latitude":50.83641,"longitude":-0.82088,"name":"Fishbourne","targetAirportCode":"ESH"},"cityB":{"id":11,"country":"GB","latitude":50.8131,"longitude":-1.0913,"name":"Portsmouth","targetAirportCode":"SOU"},"distanceKm":19,"shipsCount":1,"slug":"fishbourne-gb-portsmouth-gb"},{"id":10233,"cityA":{"id":217,"country":"GS","latitude":-54.15611,"longitude":-36.71611,"name":"Stromness","targetAirportCode":null},"cityB":{"id":216,"country":"GB","latitude":58.61277,"longitude":-3.54627,"name":"Scrabster","targetAirportCode":"WIC"},"distanceKm":12898,"shipsCount":1,"slug":"stromness-gs-scrabster-gb"},{"id":10222,"cityA":{"id":204,"country":"GB","latitude":57.6,"longitude":-7.18333,"name":"Lochmaddy","targetAirportCode":"BEB"},"cityB":{"id":203,"country":"GB","latitude":57.58453,"longitude":-6.3549,"name":"Uig","targetAirportCode":"BEB"},"distanceKm":49,"shipsCount":1,"slug":"lochmaddy-gb-uig-gb"},{"id":10223,"cityA":{"id":205,"country":"GB","latitude":55.86277,"longitude":-5.41622,"name":"Tarbert","targetAirportCode":"CAL"},"cityB":{"id":203,"country":"GB","latitude":57.58453,"longitude":-6.3549,"name":"Uig","targetAirportCode":"BEB"},"distanceKm":200,"shipsCount":1,"slug":"tarbert-gb-uig-gb"},{"id":10126,"cityA":{"id":10,"country":"FR","latitude":48.6411502,"longitude":-2.0277292,"name":"Saint-Malo","targetAirportCode":"DNR"},"cityB":{"id":110,"country":"GG","latitude":49.45981,"longitude":-2.53527,"name":"Guernesey","targetAirportCode":"GCI"},"distanceKm":98,"shipsCount":2,"slug":"saint-malo-fr-guernesey-gg"},{"id":10125,"cityA":{"id":11,"country":"GB","latitude":50.8131,"longitude":-1.0913,"name":"Portsmouth","targetAirportCode":"SOU"},"cityB":{"id":110,"country":"GG","latitude":49.45981,"longitude":-2.53527,"name":"Guernesey","targetAirportCode":"GCI"},"distanceKm":182,"shipsCount":1,"slug":"portsmouth-gb-guernesey-gg"},{"id":10124,"cityA":{"id":111,"country":"JE","latitude":49.18804,"longitude":-2.10491,"name":"Jersey (St Helier)","targetAirportCode":"JER"},"cityB":{"id":110,"country":"GG","latitude":49.45981,"longitude":-2.53527,"name":"Guernesey","targetAirportCode":"GCI"},"distanceKm":43,"shipsCount":1,"slug":"jersey-st-helier-je-guernesey-gg"},{"id":10054,"cityA":{"id":47,"country":"GR","latitude":40.93959,"longitude":24.40687,"name":"Kavala","targetAirportCode":"KVA"},"cityB":{"id":46,"country":"GR","latitude":39.53889,"longitude":24.99167,"name":"Agios Efstratios","targetAirportCode":"JSI"},"distanceKm":163,"shipsCount":1,"slug":"kavala-gr-agios-efstratios-gr"},{"id":10055,"cityA":{"id":48,"country":"GR","latitude":39.87483,"longitude":25.06359,"name":"Limnos (Myrina)","targetAirportCode":"KVA"},"cityB":{"id":46,"country":"GR","latitude":39.53889,"longitude":24.99167,"name":"Agios Efstratios","targetAirportCode":"JSI"},"distanceKm":37,"shipsCount":1,"slug":"limnos-myrina-gr-agios-efstratios-gr"},{"id":10056,"cityA":{"id":50,"country":"GR","latitude":37.5785,"longitude":26.48069,"name":"Fournoi","targetAirportCode":"SMI"},"cityB":{"id":49,"country":"GR","latitude":37.78773,"longitude":20.83085,"name":"Agios Kirikos","targetAirportCode":"ZTH"},"distanceKm":498,"shipsCount":1,"slug":"fournoi-gr-agios-kirikos-gr"},{"id":10057,"cityA":{"id":51,"country":"GR","latitude":39.10772,"longitude":26.55529,"name":"Mytilene","targetAirportCode":"MJT"},"cityB":{"id":49,"country":"GR","latitude":37.78773,"longitude":20.83085,"name":"Agios Kirikos","targetAirportCode":"ZTH"},"distanceKm":520,"shipsCount":1,"slug":"mytilene-gr-agios-kirikos-gr"},{"id":10071,"cityA":{"id":72,"country":"GR","latitude":36.9503,"longitude":26.98388,"name":"Kalymnos","targetAirportCode":"KGS"},"cityB":{"id":71,"country":"GR","latitude":36.55,"longitude":26.35,"name":"Astypalea","targetAirportCode":"KGS"},"distanceKm":71,"shipsCount":1,"slug":"kalymnos-gr-astypalea-gr"},{"id":10072,"cityA":{"id":73,"country":"GR","latitude":36.14889,"longitude":29.59361,"name":"Kastelorizo","targetAirportCode":"RHO"},"cityB":{"id":71,"country":"GR","latitude":36.55,"longitude":26.35,"name":"Astypalea","targetAirportCode":"KGS"},"distanceKm":294,"shipsCount":1,"slug":"kastelorizo-gr-astypalea-gr"},{"id":10073,"cityA":{"id":74,"country":"GR","latitude":37.94203,"longitude":23.64619,"name":"Le Pirée","targetAirportCode":"ATH"},"cityB":{"id":71,"country":"GR","latitude":36.55,"longitude":26.35,"name":"Astypalea","targetAirportCode":"KGS"},"distanceKm":285,"shipsCount":1,"slug":"le-piree-gr-astypalea-gr"},{"id":10076,"cityA":{"id":77,"country":"GR","latitude":36.43556,"longitude":28.22199,"name":"Rhodes","targetAirportCode":"RHO"},"cityB":{"id":71,"country":"GR","latitude":36.55,"longitude":26.35,"name":"Astypalea","targetAirportCode":"KGS"},"distanceKm":167,"shipsCount":1,"slug":"rhodes-gr-astypalea-gr"},{"id":10077,"cityA":{"id":78,"country":"GR","latitude":36.61547,"longitude":27.83619,"name":"Symi (Simi)","targetAirportCode":"RHO"},"cityB":{"id":71,"country":"GR","latitude":36.55,"longitude":26.35,"name":"Astypalea","targetAirportCode":"KGS"},"distanceKm":133,"shipsCount":1,"slug":"symi-simi-gr-astypalea-gr"},{"id":10079,"cityA":{"id":80,"country":"GR","latitude":36.45505,"longitude":27.34563,"name":"Tilos","targetAirportCode":"KGS"},"cityB":{"id":71,"country":"GR","latitude":36.55,"longitude":26.35,"name":"Astypalea","targetAirportCode":"KGS"},"distanceKm":89,"shipsCount":1,"slug":"tilos-gr-astypalea-gr"},{"id":10094,"cityA":{"id":74,"country":"GR","latitude":37.94203,"longitude":23.64619,"name":"Le Pirée","targetAirportCode":"ATH"},"cityB":{"id":92,"country":"GR","latitude":35.51124,"longitude":24.02921,"name":"Chania","targetAirportCode":"CHQ"},"distanceKm":272,"shipsCount":3,"slug":"le-piree-gr-chania-gr"},{"id":10096,"cityA":{"id":50,"country":"GR","latitude":37.5785,"longitude":26.48069,"name":"Fournoi","targetAirportCode":"SMI"},"cityB":{"id":94,"country":"GR","latitude":38.36875,"longitude":26.13718,"name":"Chios","targetAirportCode":"JKH"},"distanceKm":92,"shipsCount":1,"slug":"fournoi-gr-chios-gr"},{"id":10097,"cityA":{"id":95,"country":"GR","latitude":37.79209,"longitude":26.7049,"name":"Karlovassi","targetAirportCode":"SMI"},"cityB":{"id":94,"country":"GR","latitude":38.36875,"longitude":26.13718,"name":"Chios","targetAirportCode":"JKH"},"distanceKm":81,"shipsCount":1,"slug":"karlovassi-gr-chios-gr"},{"id":10098,"cityA":{"id":47,"country":"GR","latitude":40.93959,"longitude":24.40687,"name":"Kavala","targetAirportCode":"KVA"},"cityB":{"id":94,"country":"GR","latitude":38.36875,"longitude":26.13718,"name":"Chios","targetAirportCode":"JKH"},"distanceKm":322,"shipsCount":1,"slug":"kavala-gr-chios-gr"},{"id":10099,"cityA":{"id":74,"country":"GR","latitude":37.94203,"longitude":23.64619,"name":"Le Pirée","targetAirportCode":"ATH"},"cityB":{"id":94,"country":"GR","latitude":38.36875,"longitude":26.13718,"name":"Chios","targetAirportCode":"JKH"},"distanceKm":223,"shipsCount":2,"slug":"le-piree-gr-chios-gr"},{"id":10100,"cityA":{"id":48,"country":"GR","latitude":39.87483,"longitude":25.06359,"name":"Limnos (Myrina)","targetAirportCode":"KVA"},"cityB":{"id":94,"country":"GR","latitude":38.36875,"longitude":26.13718,"name":"Chios","targetAirportCode":"JKH"},"distanceKm":191,"shipsCount":1,"slug":"limnos-myrina-gr-chios-gr"},{"id":10101,"cityA":{"id":65,"country":"GR","latitude":37.44529,"longitude":25.32872,"name":"Mykonos","targetAirportCode":"JMK"},"cityB":{"id":94,"country":"GR","latitude":38.36875,"longitude":26.13718,"name":"Chios","targetAirportCode":"JKH"},"distanceKm":124,"shipsCount":1,"slug":"mykonos-gr-chios-gr"},{"id":10102,"cityA":{"id":51,"country":"GR","latitude":39.10772,"longitude":26.55529,"name":"Mytilene","targetAirportCode":"MJT"},"cityB":{"id":94,"country":"GR","latitude":38.36875,"longitude":26.13718,"name":"Chios","targetAirportCode":"JKH"},"distanceKm":89,"shipsCount":1,"slug":"mytilene-gr-chios-gr"},{"id":10103,"cityA":{"id":96,"country":"GR","latitude":38.51458,"longitude":26.22241,"name":"Oinousses","targetAirportCode":"JKH"},"cityB":{"id":94,"country":"GR","latitude":38.36875,"longitude":26.13718,"name":"Chios","targetAirportCode":"JKH"},"distanceKm":17,"shipsCount":1,"slug":"oinousses-gr-chios-gr"},{"id":10104,"cityA":{"id":97,"country":"GR","latitude":38.54097,"longitude":25.56287,"name":"Psara","targetAirportCode":"JKH"},"cityB":{"id":94,"country":"GR","latitude":38.36875,"longitude":26.13718,"name":"Chios","targetAirportCode":"JKH"},"distanceKm":53,"shipsCount":1,"slug":"psara-gr-chios-gr"},{"id":10105,"cityA":{"id":79,"country":"GR","latitude":37.44997,"longitude":24.93562,"name":"Syros","targetAirportCode":"JMK"},"cityB":{"id":94,"country":"GR","latitude":38.36875,"longitude":26.13718,"name":"Chios","targetAirportCode":"JKH"},"distanceKm":146,"shipsCount":1,"slug":"syros-gr-chios-gr"},{"id":10106,"cityA":{"id":98,"country":"GR","latitude":38.4049,"longitude":23.60332,"name":"Vathi","targetAirportCode":"ATH"},"cityB":{"id":94,"country":"GR","latitude":38.36875,"longitude":26.13718,"name":"Chios","targetAirportCode":"JKH"},"distanceKm":221,"shipsCount":1,"slug":"vathi-gr-chios-gr"},{"id":10158,"cityA":{"id":62,"country":"GR","latitude":39.50342,"longitude":20.26728,"name":"Igoumenitsa","targetAirportCode":"CFU"},"cityB":{"id":148,"country":"GR","latitude":39.62441,"longitude":19.92016,"name":"Corfu","targetAirportCode":"CFU"},"distanceKm":32,"shipsCount":2,"slug":"igoumenitsa-gr-corfu-gr"},{"id":10159,"cityA":{"id":149,"country":"GR","latitude":38.12227,"longitude":20.50246,"name":"Kefalonia","targetAirportCode":"EFL"},"cityB":{"id":148,"country":"GR","latitude":39.62441,"longitude":19.92016,"name":"Corfu","targetAirportCode":"CFU"},"distanceKm":174,"shipsCount":1,"slug":"kefalonia-gr-corfu-gr"},{"id":10160,"cityA":{"id":150,"country":"GR","latitude":37.78022,"longitude":20.89555,"name":"Zakynthos","targetAirportCode":"ZTH"},"cityB":{"id":148,"country":"GR","latitude":39.62441,"longitude":19.92016,"name":"Corfu","targetAirportCode":"CFU"},"distanceKm":222,"shipsCount":1,"slug":"zakynthos-gr-corfu-gr"},{"id":10113,"cityA":{"id":95,"country":"GR","latitude":37.79209,"longitude":26.7049,"name":"Karlovassi","targetAirportCode":"SMI"},"cityB":{"id":50,"country":"GR","latitude":37.5785,"longitude":26.48069,"name":"Fournoi","targetAirportCode":"SMI"},"distanceKm":30,"shipsCount":1,"slug":"karlovassi-gr-fournoi-gr"},{"id":10114,"cityA":{"id":47,"country":"GR","latitude":40.93959,"longitude":24.40687,"name":"Kavala","targetAirportCode":"KVA"},"cityB":{"id":50,"country":"GR","latitude":37.5785,"longitude":26.48069,"name":"Fournoi","targetAirportCode":"SMI"},"distanceKm":414,"shipsCount":1,"slug":"kavala-gr-fournoi-gr"},{"id":10115,"cityA":{"id":74,"country":"GR","latitude":37.94203,"longitude":23.64619,"name":"Le Pirée","targetAirportCode":"ATH"},"cityB":{"id":50,"country":"GR","latitude":37.5785,"longitude":26.48069,"name":"Fournoi","targetAirportCode":"SMI"},"distanceKm":252,"shipsCount":1,"slug":"le-piree-gr-fournoi-gr"},{"id":10116,"cityA":{"id":48,"country":"GR","latitude":39.87483,"longitude":25.06359,"name":"Limnos (Myrina)","targetAirportCode":"KVA"},"cityB":{"id":50,"country":"GR","latitude":37.5785,"longitude":26.48069,"name":"Fournoi","targetAirportCode":"SMI"},"distanceKm":283,"shipsCount":1,"slug":"limnos-myrina-gr-fournoi-gr"},{"id":10117,"cityA":{"id":65,"country":"GR","latitude":37.44529,"longitude":25.32872,"name":"Mykonos","targetAirportCode":"JMK"},"cityB":{"id":50,"country":"GR","latitude":37.5785,"longitude":26.48069,"name":"Fournoi","targetAirportCode":"SMI"},"distanceKm":102,"shipsCount":1,"slug":"mykonos-gr-fournoi-gr"},{"id":10118,"cityA":{"id":51,"country":"GR","latitude":39.10772,"longitude":26.55529,"name":"Mytilene","targetAirportCode":"MJT"},"cityB":{"id":50,"country":"GR","latitude":37.5785,"longitude":26.48069,"name":"Fournoi","targetAirportCode":"SMI"},"distanceKm":170,"shipsCount":1,"slug":"mytilene-gr-fournoi-gr"},{"id":10119,"cityA":{"id":79,"country":"GR","latitude":37.44997,"longitude":24.93562,"name":"Syros","targetAirportCode":"JMK"},"cityB":{"id":50,"country":"GR","latitude":37.5785,"longitude":26.48069,"name":"Fournoi","targetAirportCode":"SMI"},"distanceKm":137,"shipsCount":1,"slug":"syros-gr-fournoi-gr"},{"id":10120,"cityA":{"id":98,"country":"GR","latitude":38.4049,"longitude":23.60332,"name":"Vathi","targetAirportCode":"ATH"},"cityB":{"id":50,"country":"GR","latitude":37.5785,"longitude":26.48069,"name":"Fournoi","targetAirportCode":"SMI"},"distanceKm":268,"shipsCount":1,"slug":"vathi-gr-fournoi-gr"},{"id":10134,"cityA":{"id":74,"country":"GR","latitude":37.94203,"longitude":23.64619,"name":"Le Pirée","targetAirportCode":"ATH"},"cityB":{"id":121,"country":"GR","latitude":35.32787,"longitude":25.14341,"name":"Héraklion","targetAirportCode":"HER"},"distanceKm":320,"shipsCount":3,"slug":"le-piree-gr-heraklion-gr"},{"id":10135,"cityA":{"id":122,"country":"GR","latitude":36.74536,"longitude":24.4265,"name":"Milos","targetAirportCode":"JTR"},"cityB":{"id":121,"country":"GR","latitude":35.32787,"longitude":25.14341,"name":"Héraklion","targetAirportCode":"HER"},"distanceKm":170,"shipsCount":1,"slug":"milos-gr-heraklion-gr"},{"id":10218,"cityA":{"id":136,"country":"GR","latitude":36.35816,"longitude":25.44615,"name":"Santorini - Emporeío","targetAirportCode":"JTR"},"cityB":{"id":121,"country":"GR","latitude":35.32787,"longitude":25.14341,"name":"Héraklion","targetAirportCode":"HER"},"distanceKm":117,"shipsCount":1,"slug":"santorini-emporeio-gr-heraklion-gr"},{"id":10136,"cityA":{"id":123,"country":"IT","latitude":45.43713,"longitude":12.33265,"name":"Venise","targetAirportCode":"VCE"},"cityB":{"id":62,"country":"GR","latitude":39.50342,"longitude":20.26728,"name":"Igoumenitsa","targetAirportCode":"CFU"},"distanceKm":926,"shipsCount":1,"slug":"venise-it-igoumenitsa-gr"},{"id":10149,"cityA":{"id":136,"country":"GR","latitude":36.35816,"longitude":25.44615,"name":"Santorini - Emporeío","targetAirportCode":"JTR"},"cityB":{"id":74,"country":"GR","latitude":37.94203,"longitude":23.64619,"name":"Le Pirée","targetAirportCode":"ATH"},"distanceKm":237,"shipsCount":3,"slug":"santorini-emporeio-gr-le-piree-gr"},{"id":10180,"cityA":{"id":74,"country":"GR","latitude":37.94203,"longitude":23.64619,"name":"Le Pirée","targetAirportCode":"ATH"},